$GPGGA,165139.00,,,,,0,00,300.0,,M,,M,,*6C
$PGLOR,9,STA,165139.00,0.009,0.000,-232,1,3000,0,P,F,L,1,C,2,S,00100180,685,4,R,000833F4,TPeF,17,144564,LC,,,*45
$GPGSV,3,1,10,25,72,077,19,29,71,207,,31,45,300,12,12,33,090,15*75
$GPGSV,3,2,10,02,31,055,17,14,29,260,15,32,17,233,25,06,08,029,*76
$GPGSV,3,3,10,24,03,150,,21,03,182,*72
$GLGSV,2,1,07,75,75,339,12,85,64,169,12,76,25,312,19,67,12,348,10*6B
$GLGSV,2,2,07,86,11,198,15,66,12,298,,73,01,125,*5B
$BDGSV,2,1,07,230,73,128,,213,37,056,,229,32,207,,227,32,051,*6A
$BDGSV,2,2,07,208,23,033,,205,15,119,,214,02,356,*6B
$GPGSA,A,1,,,,,,,,,,,,,140.0,99.0,99.0*35
$GNGSA,A,1,,,,,,,,,,,,,140.0,99.0,99.0*2B
$QZGSA,A,1,,,,,,,,,,,,,140.0,99.0,99.0*29
$IMGSA,A,1,,,,,,,,,,,,,140.0,99.0,99.0*26
$BDGSA,A,1,,,,,,,,,,,,,140.0,99.0,99.0*24
$GAGSA,A,1,,,,,,,,,,,,,140.0,99.0,99.0*24
$GPRMC,165139.00,V,,,,,,,140220,,,N*71
$GPGGA,165140.00,,,,,0,00,300.0,,M,,M,,*62
$PGLOR,9,STA,165140.00,0.009,0.000,-232,1,3000,0,P,F,L,1,C,2,S,00100180,685,4,R,000833F4,TPeF,17,145564,LC,,,*4A
$GPGSV,3,1,10,25,72,077,19,29,71,207,,31,45,300,12,12,33,090,15*75
$GPGSV,3,2,10,02,31,055,19,14,29,260,15,32,17,233,26,06,08,029,*7B
$GPGSV,3,3,10,24,03,150,,21,03,182,*72
$GLGSV,2,1,07,75,75,339,13,85,64,169,11,76,25,312,19,67,12,348,10*69
$GLGSV,2,2,07,86,11,198,14,66,12,298,,73,01,125,*5A
$BDGSV,2,1,07,230,73,128,,213,37,056,,229,32,207,,227,32,051,*6A
$BDGSV,2,2,07,208,23,033,,205,15,119,,214,02,356,*6B
$GPGSA,A,1,,,,,,,,,,,,,140.0,99.0,99.0*35
$GNGSA,A,1,,,,,,,,,,,,,140.0,99.0,99.0*2B
$QZGSA,A,1,,,,,,,,,,,,,140.0,99.0,99.0*29
$IMGSA,A,1,,,,,,,,,,,,,140.0,99.0,99.0*26
$BDGSA,A,1,,,,,,,,,,,,,140.0,99.0,99.0*24
$GAGSA,A,1,,,,,,,,,,,,,140.0,99.0,99.0*24
$GPRMC,165140.00,V,,,,,,,140220,,,N*7F
$GPGGA,165141.00,,,,,0,00,300.0,,M,,M,,*63
$PGLOR,9,STA,165141.00,0.009,0.000,-232,1,3000,0,P,F,L,1,C,2,S,00100180,685,4,R,000833F4,TPeF,17,146564,LC,,,*48
$GPGSV,3,1,10,25,72,077,18,29,71,207,,31,45,300,12,12,33,090,15*74
$GPGSV,3,2,10,02,31,055,19,14,29,260,14,32,17,233,26,06,08,029,*7A
$GPGSV,3,3,10,24,03,150,,21,03,182,*72
$GLGSV,2,1,07,75,75,339,13,85,64,169,11,76,25,312,18,67,12,348,11*69
$GLGSV,2,2,07,86,11,198,14,66,12,298,,73,01,125,*5A
$BDGSV,2,1,07,230,73,128,,213,37,056,,229,32,207,,227,32,051,*6A
$BDGSV,2,2,07,208,23,033,,205,15,119,,214,02,356,*6B
$GPGSA,A,1,,,,,,,,,,,,,140.0,99.0,99.0*35
$GNGSA,A,1,,,,,,,,,,,,,140.0,99.0,99.0*2B
$QZGSA,A,1,,,,,,,,,,,,,140.0,99.0,99.0*29
$IMGSA,A,1,,,,,,,,,,,,,140.0,99.0,99.0*26
$BDGSA,A,1,,,,,,,,,,,,,140.0,99.0,99.0*24
$GAGSA,A,1,,,,,,,,,,,,,140.0,99.0,99.0*24
$GPRMC,165141.00,V,,,,,,,140220,,,N*7E
$GPGGA,165142.00,,,,,0,00,300.0,,M,,M,,*60
$PGLOR,9,STA,165142.00,0.009,0.000,-232,1,3000,0,P,F,L,1,C,2,S,00100180,685,4,R,000833F4,TPeF,17,147564,LC,,,*4A
$GPGSV,3,1,10,25,72,077,18,29,71,207,,31,45,300,12,12,33,090,15*74
$GPGSV,3,2,10,02,31,055,18,14,29,260,14,32,17,233,25,06,08,029,*78
$GPGSV,3,3,10,24,03,150,,21,03,182,*72
$GLGSV,2,1,07,75,75,339,13,85,64,169,11,76,25,312,18,67,12,348,13*6B
$GLGSV,2,2,07,86,11,198,14,66,12,298,,73,01,125,*5A
$BDGSV,2,1,07,230,73,128,,213,37,056,,229,32,207,,227,32,051,*6A
$BDGSV,2,2,07,208,23,033,,205,15,119,,214,02,356,*6B
$GPGSA,A,1,,,,,,,,,,,,,140.0,99.0,99.0*35
$GNGSA,A,1,,,,,,,,,,,,,140.0,99.0,99.0*2B
$QZGSA,A,1,,,,,,,,,,,,,140.0,99.0,99.0*29
$IMGSA,A,1,,,,,,,,,,,,,140.0,99.0,99.0*26
$BDGSA,A,1,,,,,,,,,,,,,140.0,99.0,99.0*24
$GAGSA,A,1,,,,,,,,,,,,,140.0,99.0,99.0*24
$GPRMC,165142.00,V,,,,,,,140220,,,N*7D
$GPGGA,165143.00,,,,,0,00,300.0,,M,,M,,*61
$PGLOR,9,STA,165143.00,0.009,0.000,-232,1,3000,0,P,F,L,1,C,2,S,00100180,685,4,R,000833F4,TPeF,17,148564,LC,,,*44
$GPGSV,3,1,10,25,72,077,18,29,71,207,,31,45,300,12,12,33,090,15*74
$GPGSV,3,2,10,02,31,055,18,14,29,260,14,32,17,233,26,06,08,029,*7B
$GPGSV,3,3,10,24,03,150,,21,03,182,*72
$GLGSV,2,1,07,75,75,339,14,85,64,169,11,76,25,312,17,67,12,348,14*64
$GLGSV,2,2,07,86,11,198,14,66,12,298,,73,01,125,*5A
$BDGSV,2,1,07,230,73,128,,213,37,056,,229,32,207,,227,32,051,*6A
$BDGSV,2,2,07,208,23,033,,205,15,119,,214,02,356,*6B
$GPGSA,A,1,,,,,,,,,,,,,140.0,99.0,99.0*35
$GNGSA,A,1,,,,,,,,,,,,,140.0,99.0,99.0*2B
$QZGSA,A,1,,,,,,,,,,,,,140.0,99.0,99.0*29
$IMGSA,A,1,,,,,,,,,,,,,140.0,99.0,99.0*26
$BDGSA,A,1,,,,,,,,,,,,,140.0,99.0,99.0*24
$GAGSA,A,1,,,,,,,,,,,,,140.0,99.0,99.0*24
$GPRMC,165143.00,V,,,,,,,140220,,,N*7C
$GPGGA,165144.00,,,,,0,07,300.0,374.7,M,47.6,M,,*53
$PGLOR,9,STA,165144.00,0.009,0.000,-232,1,3000,0,P,F,L,1,C,2,S,00100182,685,4,R,000833F4,TPeF,17,149564,LC,,,*40
$GPGSV,3,1,10,25,72,077,18,31,45,300,12,12,33,090,15,02,31,055,17*7A
$GPGSV,3,2,10,14,29,260,14,32,17,233,27,29,71,207,,06,08,029,*7B
$GPGSV,3,3,10,24,03,150,,21,03,182,*72
$GLGSV,2,1,07,75,75,339,15,85,64,169,11,76,25,312,17,67,12,348,14*65
$GLGSV,2,2,07,86,11,198,15,66,12,298,,73,01,125,*5B
$BDGSV,2,1,07,230,73,128,,213,37,056,,229,32,207,,227,32,051,*6A
$BDGSV,2,2,07,208,23,033,,205,15,119,,214,02,356,*6B
$GPGSA,A,1,,,,,,,,,,,,,2.3,1.3,1.9*3B
$GNGSA,A,1,,,,,,,,,,,,,2.3,1.3,1.9*25
$QZGSA,A,1,,,,,,,,,,,,,2.3,1.3,1.9*27
$IMGSA,A,1,,,,,,,,,,,,,2.3,1.3,1.9*28
$BDGSA,A,1,,,,,,,,,,,,,2.3,1.3,1.9*2A
$GAGSA,A,1,,,,,,,,,,,,,2.3,1.3,1.9*2A
$GPRMC,165144.00,V,,,,,,,140220,,,N*7B
$GPGGA,165145.00,,,,,0,09,300.0,368.4,M,47.6,M,,*52
$PGLOR,9,STA,165145.00,0.009,0.000,-232,1,3000,0,P,F,L,1,C,2,S,00100182,685,4,R,000833F4,TPeF,17,150564,LC,,,*49
$GPGSV,3,1,10,25,72,077,17,31,45,300,13,12,33,090,14,02,31,055,17*75
$GPGSV,3,2,10,14,29,260,13,32,17,233,27,29,71,207,,06,08,029,*7C
$GPGSV,3,3,10,24,03,150,,21,03,182,*72
$GLGSV,2,1,07,75,75,340,15,85,64,169,11,76,25,312,17,67,12,348,15*6A
$GLGSV,2,2,07,86,11,198,15,66,12,298,,73,01,125,*5B
$BDGSV,2,1,07,230,73,128,,213,37,056,,229,32,207,,227,32,051,*6A
$BDGSV,2,2,07,208,23,033,,205,15,119,,214,02,356,*6B
$GPGSA,A,1,,,,,,,,,,,,,4.4,2.7,3.4*32
$GNGSA,A,1,,,,,,,,,,,,,4.4,2.7,3.4*2C
$QZGSA,A,1,,,,,,,,,,,,,4.4,2.7,3.4*2E
$IMGSA,A,1,,,,,,,,,,,,,4.4,2.7,3.4*21
$BDGSA,A,1,,,,,,,,,,,,,4.4,2.7,3.4*23
$GAGSA,A,1,,,,,,,,,,,,,4.4,2.7,3.4*23
$GPRMC,165145.00,V,,,,,,,140220,,,N*7A
$GPGGA,165146.00,,,,,0,08,300.0,364.8,M,47.6,M,,*50
$PGLOR,9,STA,165146.00,0.009,0.000,-232,1,3000,0,P,F,L,1,C,2,S,00100182,685,4,R,000833F4,TPeF,17,151564,LC,,,*4B
$GPGSV,3,1,10,25,72,077,17,31,45,300,13,12,33,090,14,02,31,055,16*74
$GPGSV,3,2,10,14,29,260,13,32,17,233,27,29,71,207,,06,08,029,*7C
$GPGSV,3,3,10,24,03,150,,21,03,182,*72
$GLGSV,2,1,07,75,76,340,15,85,64,169,11,76,25,312,17,67,12,348,15*69
$GLGSV,2,2,07,86,11,198,15,66,12,298,,73,01,125,*5B
$BDGSV,2,1,07,230,73,128,,213,37,056,,229,32,207,,227,32,051,*6A
$BDGSV,2,2,07,208,23,033,,205,15,119,,214,02,356,*6B
$GPGSA,A,1,,,,,,,,,,,,,4.9,3.3,3.5*3B
$GNGSA,A,1,,,,,,,,,,,,,4.9,3.3,3.5*25
$QZGSA,A,1,,,,,,,,,,,,,4.9,3.3,3.5*27
$IMGSA,A,1,,,,,,,,,,,,,4.9,3.3,3.5*28
$BDGSA,A,1,,,,,,,,,,,,,4.9,3.3,3.5*2A
$GAGSA,A,1,,,,,,,,,,,,,4.9,3.3,3.5*2A
$GPRMC,165146.00,V,,,,,,,140220,,,N*79
$GPGGA,165147.00,4943.174654,N,00537.734271,E,1,08,4.8,364.5,M,47.6,M,,*63
$PGLOR,9,STA,165147.00,0.009,0.000,-232,1,48,0,P,F,L,0,C,2,S,00100182,1386,4,R,000833F4,TPeF,17,152564,LC,,,*70
$GPGSV,3,1,10,25,72,077,16,31,45,300,13,12,33,090,14,02,31,055,15*76
$GPGSV,3,2,10,14,29,260,13,32,17,233,26,06,08,028,16,29,71,207,*7B
$GPGSV,3,3,10,21,03,182,,24,03,150,*72
$GLGSV,2,1,07,75,76,340,15,85,64,169,11,76,25,312,17,67,12,348,15*69
$GLGSV,2,2,07,86,11,198,16,66,12,298,,73,01,125,*58
$BDGSV,2,1,07,230,73,128,,213,37,056,,229,32,207,,227,32,051,*6A
$BDGSV,2,2,07,208,23,033,,205,15,119,,214,02,356,*6B
$GPGSA,A,3,06,12,31,32,,,,,,,,,2.6,1.3,2.3*33
$GNGSA,A,3,06,12,31,32,,,,,,,,,2.6,1.3,2.3*2D
$GNGSA,A,3,67,75,76,86,,,,,,,,,2.6,1.3,2.3*27
$QZGSA,A,3,,,,,,,,,,,,,2.6,1.3,2.3*29
$IMGSA,A,3,,,,,,,,,,,,,2.6,1.3,2.3*26
$BDGSA,A,3,,,,,,,,,,,,,2.6,1.3,2.3*24
$GAGSA,A,3,,,,,,,,,,,,,2.6,1.3,2.3*24
$GPRMC,165147.00,A,4943.174654,N,00537.734271,E,045.6,292.3,140220,,,A*5C
$GPGGA,165148.00,4943.179623,N,00537.709782,E,1,08,4.8,363.7,M,47.6,M,,*63
$PGLOR,9,STA,165148.00,0.009,0.000,-230,2,48,0,P,F,L,0,C,2,S,00100182,1417,4,R,000833F4,TPeF,17,153564,LC,,,*70
$GPGSV,3,1,10,25,72,077,16,31,45,300,13,12,33,090,14,02,31,055,15*76
$GPGSV,3,2,10,14,29,260,13,32,17,233,26,06,08,028,16,24,03,150,*72
$GPGSV,3,3,10,29,71,207,,21,03,182,*7B
$GLGSV,2,1,07,75,76,340,15,85,64,169,11,76,25,312,16,67,12,348,15*68
$GLGSV,2,2,07,86,11,198,19,66,12,298,,73,01,125,*57
$BDGSV,2,1,07,230,73,128,,213,37,056,,229,32,207,,227,32,051,*6A
$BDGSV,2,2,07,208,23,033,,205,15,119,,214,02,356,*6B
$GPGSA,A,3,06,12,31,32,,,,,,,,,2.0,1.0,1.7*31
$GNGSA,A,3,06,12,31,32,,,,,,,,,2.0,1.0,1.7*2F
$GNGSA,A,3,67,75,76,86,,,,,,,,,2.0,1.0,1.7*25
$QZGSA,A,3,,,,,,,,,,,,,2.0,1.0,1.7*2B
$IMGSA,A,3,,,,,,,,,,,,,2.0,1.0,1.7*24
$BDGSA,A,3,,,,,,,,,,,,,2.0,1.0,1.7*26
$GAGSA,A,3,,,,,,,,,,,,,2.0,1.0,1.7*26
$GPRMC,165148.00,A,4943.179623,N,00537.709782,E,048.7,292.3,140220,,,A*55
$GPGGA,165149.00,4943.183984,N,00537.685807,E,1,08,4.8,362.6,M,47.6,M,,*62
$PGLOR,9,STA,165149.00,0.009,0.000,-228,3,48,0,P,F,L,0,C,2,S,00100182,1446,4,R,000833F4,TPeF,17,154564,LC,,,*7A
$GPGSV,3,1,10,25,72,077,15,29,71,207,,31,45,300,13,12,33,090,14*79
$GPGSV,3,2,10,02,31,055,15,14,29,260,13,32,17,233,25,06,08,028,15*77
$GPGSV,3,3,10,24,03,150,,21,03,182,*72
$GLGSV,2,1,07,75,76,340,15,85,64,169,10,76,25,312,16,67,12,348,15*69
$GLGSV,2,2,07,86,11,198,19,66,12,298,,73,01,125,*57
$BDGSV,2,1,07,230,73,128,,213,37,056,,229,32,207,,227,32,051,*6A
$BDGSV,2,2,07,208,23,033,,205,15,119,,214,02,356,*6B
$GPGSA,A,3,06,12,31,32,,,,,,,,,2.0,1.3,1.5*30
$GNGSA,A,3,06,12,31,32,,,,,,,,,2.0,1.3,1.5*2E
$GNGSA,A,3,67,75,76,86,,,,,,,,,2.0,1.3,1.5*24
$QZGSA,A,3,,,,,,,,,,,,,2.0,1.3,1.5*2A
$IMGSA,A,3,,,,,,,,,,,,,2.0,1.3,1.5*25
$BDGSA,A,3,,,,,,,,,,,,,2.0,1.3,1.5*27
$GAGSA,A,3,,,,,,,,,,,,,2.0,1.3,1.5*27
$GPRMC,165149.00,A,4943.183984,N,00537.685807,E,050.1,291.4,140220,,,A*5F
$GPGGA,165150.00,4943.188940,N,00537.657996,E,1,08,3.2,361.2,M,47.6,M,,*65
$PGLOR,9,STA,165150.00,0.009,0.000,-230,2,32,0,P,F,L,0,C,2,S,00100182,1481,4,R,000833F4,TPeF,17,155564,LC,,,*7D
$GPGSV,3,1,10,25,72,077,15,29,71,207,,31,45,300,13,12,33,090,14*79
$GPGSV,3,2,10,02,31,055,14,14,29,260,14,32,17,233,25,06,08,028,15*71
$GPGSV,3,3,10,24,03,150,,21,03,182,*72
$GLGSV,2,1,07,75,76,340,20,85,64,169,10,76,25,312,16,67,12,348,16*6C
$GLGSV,2,2,07,86,11,198,19,66,12,298,,73,01,125,*57
$BDGSV,2,1,07,230,73,128,,213,37,056,,229,32,207,,227,32,051,*6A
$BDGSV,2,2,07,208,23,033,,205,15,119,,214,02,356,*6B
$GPGSA,A,3,06,14,31,32,,,,,,,,,1.9,1.2,1.4*3C
$GNGSA,A,3,06,14,31,32,,,,,,,,,1.9,1.2,1.4*22
$GNGSA,A,3,67,75,76,86,,,,,,,,,1.9,1.2,1.4*2E
$QZGSA,A,3,,,,,,,,,,,,,1.9,1.2,1.4*20
$IMGSA,A,3,,,,,,,,,,,,,1.9,1.2,1.4*2F
$BDGSA,A,3,,,,,,,,,,,,,1.9,1.2,1.4*2D
$GAGSA,A,3,,,,,,,,,,,,,1.9,1.2,1.4*2D
$GPRMC,165150.00,A,4943.188940,N,00537.657996,E,051.2,290.2,140220,,,A*57
$GPGGA,165151.00,4943.193940,N,00537.631920,E,1,08,3.2,360.2,M,47.6,M,,*62
$PGLOR,9,STA,165151.00,0.009,0.000,-234,3,32,0,P,F,L,0,C,2,S,00100182,1514,4,R,000833F4,TPeF,17,156564,LC,,,*77
$GPGSV,3,1,10,25,72,077,14,29,71,207,,31,45,300,13,12,33,090,13*7F
$GPGSV,3,2,10,02,31,055,14,14,29,260,14,32,17,233,25,06,08,028,15*71
$GPGSV,3,3,10,24,03,150,,21,03,182,*72
$GLGSV,2,1,07,75,76,340,20,85,64,169,,76,25,312,16,67,12,348,19*62
$GLGSV,2,2,07,86,11,198,19,66,12,298,,73,01,125,*57
$BDGSV,2,1,07,230,73,128,,213,37,056,,229,32,207,,227,32,051,*6A
$BDGSV,2,2,07,208,23,033,,205,15,119,,214,02,356,*6B
$GPGSA,A,3,06,14,31,32,,,,,,,,,1.9,1.2,1.4*3C
$GNGSA,A,3,06,14,31,32,,,,,,,,,1.9,1.2,1.4*22
$GNGSA,A,3,67,75,76,86,,,,,,,,,1.9,1.2,1.4*2E
$QZGSA,A,3,,,,,,,,,,,,,1.9,1.2,1.4*20
$IMGSA,A,3,,,,,,,,,,,,,1.9,1.2,1.4*2F
$BDGSA,A,3,,,,,,,,,,,,,1.9,1.2,1.4*2D
$GAGSA,A,3,,,,,,,,,,,,,1.9,1.2,1.4*2D
$GPRMC,165151.00,A,4943.193940,N,00537.631920,E,051.7,290.0,140220,,,A*56
$GPGGA,165152.00,4943.196701,N,00537.609484,E,1,07,3.2,358.4,M,47.6,M,,*65
$PGLOR,9,STA,165152.00,0.009,0.000,-232,5,32,0,P,F,L,0,C,2,S,00100182,1541,4,R,000833F4,TPeF,17,157564,LC,,,*75
$GPGSV,3,1,10,25,72,077,14,29,71,207,,31,45,300,13,12,33,090,13*7F
$GPGSV,3,2,10,02,31,055,14,14,29,260,14,32,17,233,25,06,08,028,15*71
$GPGSV,3,3,10,24,03,150,,21,03,182,*72
$GLGSV,2,1,07,75,76,340,20,85,64,169,10,76,25,312,20,67,12,348,18*67
$GLGSV,2,2,07,86,11,198,23,66,12,298,,73,01,125,*5E
$BDGSV,2,1,07,230,73,128,,213,37,056,,229,32,207,,227,32,051,*6A
$BDGSV,2,2,07,208,23,033,,205,15,119,,214,02,356,*6B
$GPGSA,A,3,14,31,32,,,,,,,,,,2.3,1.6,1.6*35
$GNGSA,A,3,14,31,32,,,,,,,,,,2.3,1.6,1.6*2B
$GNGSA,A,3,67,75,76,86,,,,,,,,,2.3,1.6,1.6*21
$QZGSA,A,3,,,,,,,,,,,,,2.3,1.6,1.6*2F
$IMGSA,A,3,,,,,,,,,,,,,2.3,1.6,1.6*20
$BDGSA,A,3,,,,,,,,,,,,,2.3,1.6,1.6*22
$GAGSA,A,3,,,,,,,,,,,,,2.3,1.6,1.6*22
$GPRMC,165152.00,A,4943.196701,N,00537.609484,E,052.5,289.4,140220,,,A*5E
$GPGGA,165153.00,4943.199880,N,00537.586788,E,1,08,3.2,356.3,M,47.6,M,,*60
$PGLOR,9,STA,165153.00,0.009,0.000,-233,4,32,0,P,F,L,0,C,2,S,00100182,1569,4,R,000833F4,TPeF,17,158564,LC,,,*71
$GPGSV,3,1,10,25,72,077,14,29,71,207,,31,45,300,18,12,33,090,13*74
$GPGSV,3,2,10,02,31,055,13,14,29,260,14,32,17,233,25,06,08,028,14*77
$GPGSV,3,3,10,21,03,182,,24,03,150,*72
$GLGSV,2,1,07,75,76,340,20,85,64,169,09,76,25,312,20,67,12,348,21*65
$GLGSV,2,2,07,86,11,198,23,66,12,298,,73,01,125,*5E
$BDGSV,2,1,07,230,73,128,,213,37,056,,229,32,207,,227,32,051,*6A
$BDGSV,2,2,07,208,23,033,,205,15,119,,214,02,356,*6B
$GPGSA,A,3,14,31,32,,,,,,,,,,2.2,1.6,1.5*37
$GNGSA,A,3,14,31,32,,,,,,,,,,2.2,1.6,1.5*29
$GNGSA,A,3,67,75,76,86,,,,,,,,,2.2,1.6,1.5*23
$QZGSA,A,3,,,,,,,,,,,,,2.2,1.6,1.5*2D
$IMGSA,A,3,,,,,,,,,,,,,2.2,1.6,1.5*22
$BDGSA,A,3,,,,,,,,,,,,,2.2,1.6,1.5*20
$GAGSA,A,3,,,,,,,,,,,,,2.2,1.6,1.5*20
$GPRMC,165153.00,A,4943.199880,N,00537.586788,E,053.1,288.1,140220,,,A*5C
$GPGGA,165154.00,4943.204075,N,00537.562812,E,1,08,3.2,354.3,M,47.6,M,,*66
$PGLOR,9,STA,165154.00,0.009,0.000,-229,3,32,0,P,F,L,0,C,2,S,00100182,1598,4,R,000833F4,TPeF,17,159564,LC,,,*75
$GPGSV,3,1,10,25,72,077,14,29,71,207,08,31,45,300,18,12,33,090,13*7C
$GPGSV,3,2,10,02,31,055,13,14,29,260,14,32,17,233,24,06,08,028,14*76
$GPGSV,3,3,10,21,03,182,,24,03,150,*72
$GLGSV,2,1,07,75,76,340,20,85,64,169,09,76,25,312,19,67,12,348,21*6F
$GLGSV,2,2,07,86,11,198,22,66,12,298,,73,01,125,*5F
$BDGSV,2,1,07,230,73,128,,213,37,056,,229,32,207,,227,32,051,*6A
$BDGSV,2,2,07,208,23,033,,205,15,119,,214,02,356,*6B
$GPGSA,A,3,25,31,32,,,,,,,,,,2.0,1.4,1.5*35
$GNGSA,A,3,25,31,32,,,,,,,,,,2.0,1.4,1.5*2B
$GNGSA,A,3,67,75,76,86,,,,,,,,,2.0,1.4,1.5*23
$QZGSA,A,3,,,,,,,,,,,,,2.0,1.4,1.5*2D
$IMGSA,A,3,,,,,,,,,,,,,2.0,1.4,1.5*22
$BDGSA,A,3,,,,,,,,,,,,,2.0,1.4,1.5*20
$GAGSA,A,3,,,,,,,,,,,,,2.0,1.4,1.5*20
$GPRMC,165154.00,A,4943.204075,N,00537.562812,E,054.4,285.9,140220,,,A*5F
$GPGGA,165155.00,4943.207646,N,00537.538704,E,1,09,2.4,352.9,M,47.6,M,,*6F
$PGLOR,9,STA,165155.00,0.009,0.000,-230,2,24,0,P,F,L,0,C,2,S,00100182,1628,4,R,000833F4,TPeF,17,160564,LC,,,*78
$GPGSV,3,1,10,25,72,077,14,29,71,207,08,31,45,300,18,12,33,090,14*7B
$GPGSV,3,2,10,02,31,055,13,14,29,260,13,32,17,233,24,06,08,028,14*71
$GPGSV,3,3,10,21,03,182,,24,03,150,*72
$GLGSV,2,1,07,75,76,340,20,85,64,169,11,76,25,312,18,67,12,348,20*66
$GLGSV,2,2,07,86,11,198,22,66,12,298,,73,01,125,*5F
$BDGSV,2,1,07,230,73,128,,213,37,056,,229,32,207,,227,32,051,*6A
$BDGSV,2,2,07,208,23,033,,205,15,119,,214,02,356,*6B
$GPGSA,A,3,12,25,31,32,,,,,,,,,1.8,1.0,1.5*39
$GNGSA,A,3,12,25,31,32,,,,,,,,,1.8,1.0,1.5*27
$GNGSA,A,3,67,75,76,86,,,,,,,,,1.8,1.0,1.5*2C
$QZGSA,A,3,,,,,,,,,,,,,1.8,1.0,1.5*22
$IMGSA,A,3,,,,,,,,,,,,,1.8,1.0,1.5*2D
$BDGSA,A,3,,,,,,,,,,,,,1.8,1.0,1.5*2F
$GAGSA,A,3,,,,,,,,,,,,,1.8,1.0,1.5*2F
$GPRMC,165155.00,A,4943.207646,N,00537.538704,E,054.4,283.8,140220,,,A*5B
$GPGGA,165156.00,4943.211155,N,00537.513545,E,1,11,2.4,351.8,M,47.6,M,,*6B
$PGLOR,9,STA,165156.00,0.009,0.000,-229,3,24,0,P,F,L,0,C,2,S,00100182,1659,4,R,000833F4,TPeF,17,161564,LC,,,*75
$GPGSV,3,1,10,25,72,077,13,29,71,207,11,31,45,300,18,12,33,090,18*78
$GPGSV,3,2,10,02,31,055,13,14,29,260,13,32,17,233,24,06,08,028,13*76
$GPGSV,3,3,10,21,03,182,,24,03,150,*72
$GLGSV,2,1,07,75,76,340,19,85,64,169,11,76,25,312,18,67,12,348,20*6C
$GLGSV,2,2,07,86,11,198,22,66,12,298,,73,01,125,*5F
$BDGSV,2,1,07,230,73,128,,213,37,056,,229,32,207,,227,32,051,*6A
$BDGSV,2,2,07,208,23,033,,205,15,119,,214,02,356,*6B
$GPGSA,A,3,02,12,14,25,31,32,,,,,,,1.7,0.9,1.5*39
$GNGSA,A,3,02,12,14,25,31,32,,,,,,,1.7,0.9,1.5*27
$GNGSA,A,3,67,75,76,86,,,,,,,,,1.7,0.9,1.5*2B
$QZGSA,A,3,,,,,,,,,,,,,1.7,0.9,1.5*25
$IMGSA,A,3,,,,,,,,,,,,,1.7,0.9,1.5*2A
$BDGSA,A,3,,,,,,,,,,,,,1.7,0.9,1.5*28
$GAGSA,A,3,,,,,,,,,,,,,1.7,0.9,1.5*28
$GPRMC,165156.00,A,4943.211155,N,00537.513545,E,055.1,283.2,140220,,,A*5A
$GPGGA,165157.00,4943.214816,N,00537.488729,E,1,09,2.4,351.1,M,47.6,M,,*6A
$PGLOR,9,STA,165157.00,0.009,0.000,-229,2,24,0,P,F,L,0,C,2,S,00100182,1689,4,R,000833F4,TPeF,17,162564,LC,,,*7B
$GPGSV,3,1,10,25,72,077,13,29,71,207,12,31,45,300,18,12,33,090,18*7B
$GPGSV,3,2,10,02,31,055,13,14,29,260,13,32,17,233,23,06,08,028,13*71
$GPGSV,3,3,10,21,03,182,,24,03,150,*72
$GLGSV,2,1,07,75,76,340,18,85,64,169,11,76,25,312,17,67,12,348,19*68
$GLGSV,2,2,07,86,11,198,21,66,12,298,,73,01,125,*5C
$BDGSV,2,1,07,230,73,128,,213,37,056,,229,32,207,,227,32,051,*6A
$BDGSV,2,2,07,208,23,033,,205,15,119,,214,02,356,*6B
$GPGSA,A,3,02,12,31,32,,,,,,,,,2.5,1.1,2.3*36
$GNGSA,A,3,02,12,31,32,,,,,,,,,2.5,1.1,2.3*28
$GNGSA,A,3,67,75,76,86,,,,,,,,,2.5,1.1,2.3*26
$QZGSA,A,3,,,,,,,,,,,,,2.5,1.1,2.3*28
$IMGSA,A,3,,,,,,,,,,,,,2.5,1.1,2.3*27
$BDGSA,A,3,,,,,,,,,,,,,2.5,1.1,2.3*25
$GAGSA,A,3,,,,,,,,,,,,,2.5,1.1,2.3*25
$GPRMC,165157.00,A,4943.214816,N,00537.488729,E,055.1,282.9,140220,,,A*51
$GPGGA,165158.00,4943.218783,N,00537.461212,E,1,09,3.2,350.7,M,47.6,M,,*60
$PGLOR,9,STA,165158.00,0.009,0.000,-230,2,32,0,P,F,L,0,C,2,S,00100182,1723,4,R,000833F4,TPeF,17,163564,LC,,,*7B
$GPGSV,3,1,10,25,72,077,13,29,71,207,19,31,45,300,19,12,33,090,18*71
$GPGSV,3,2,10,02,31,055,13,14,29,260,13,32,17,233,23,06,08,028,13*71
$GPGSV,3,3,10,21,03,182,,24,03,150,*72
$GLGSV,2,1,07,75,76,340,18,85,64,169,11,76,25,312,17,67,12,348,19*68
$GLGSV,2,2,07,86,12,198,21,66,12,298,,73,01,125,*5F
$BDGSV,2,1,07,230,73,128,,213,37,056,,229,32,207,,227,32,051,*6A
$BDGSV,2,2,07,208,23,033,,205,15,119,,214,02,356,*6B
$GPGSA,A,3,12,29,31,32,,,,,,,,,1.9,1.1,1.5*35
$GNGSA,A,3,12,29,31,32,,,,,,,,,1.9,1.1,1.5*2B
$GNGSA,A,3,67,75,76,86,,,,,,,,,1.9,1.1,1.5*2C
$QZGSA,A,3,,,,,,,,,,,,,1.9,1.1,1.5*22
$IMGSA,A,3,,,,,,,,,,,,,1.9,1.1,1.5*2D
$BDGSA,A,3,,,,,,,,,,,,,1.9,1.1,1.5*2F
$GAGSA,A,3,,,,,,,,,,,,,1.9,1.1,1.5*2F
$GPRMC,165158.00,A,4943.218783,N,00537.461212,E,056.2,282.6,140220,,,A*54
$GPGGA,165159.00,4943.222369,N,00537.436186,E,1,09,1.6,350.4,M,47.6,M,,*61
$PGLOR,9,STA,165159.00,0.009,0.000,-230,2,16,0,P,F,L,0,C,2,S,00100182,1754,4,R,000833F4,TPeF,17,164564,LC,,,*7B
$GPGSV,3,1,10,25,72,077,13,29,71,207,18,31,45,300,19,12,33,090,21*7A
$GPGSV,3,2,10,02,31,055,14,14,29,260,13,32,17,233,21,06,08,028,12*75
$GPGSV,3,3,10,21,03,182,,24,03,150,*72
$GLGSV,2,1,07,75,76,340,17,85,64,169,11,76,25,312,20,67,12,348,19*63
$GLGSV,2,2,07,86,12,198,20,66,12,298,,73,01,125,*5E
$BDGSV,2,1,07,230,73,128,,213,37,056,,229,32,207,,227,32,051,*6A
$BDGSV,2,2,07,208,23,033,,205,15,119,,214,02,356,*6B
$GPGSA,A,3,02,12,29,31,,,,,,,,,1.8,0.9,1.5*3E
$GNGSA,A,3,02,12,29,31,,,,,,,,,1.8,0.9,1.5*20
$GNGSA,A,3,67,75,76,86,,,,,,,,,1.8,0.9,1.5*24
$QZGSA,A,3,,,,,,,,,,,,,1.8,0.9,1.5*2A
$IMGSA,A,3,,,,,,,,,,,,,1.8,0.9,1.5*25
$BDGSA,A,3,,,,,,,,,,,,,1.8,0.9,1.5*27
$GAGSA,A,3,,,,,,,,,,,,,1.8,0.9,1.5*27
$GPRMC,165159.00,A,4943.222369,N,00537.436186,E,056.5,282.4,140220,,,A*55
$GPGGA,165200.00,4943.225643,N,00537.410613,E,1,09,2.4,350.2,M,47.6,M,,*6C
$PGLOR,9,STA,165200.00,0.009,0.000,-230,3,24,0,P,F,L,0,C,2,S,00100182,1785,4,R,000833F4,TPeF,17,165564,LC,,,*79
$GPGSV,3,1,10,25,72,077,12,29,71,207,18,31,45,300,19,12,33,090,21*7B
$GPGSV,3,2,10,02,31,055,14,14,29,260,13,32,17,233,21,06,08,028,12*75
$GPGSV,3,3,10,21,03,182,,24,03,150,*72
$GLGSV,2,1,07,75,76,340,17,85,64,169,10,76,25,312,20,67,12,348,18*63
$GLGSV,2,2,07,86,12,198,20,66,12,298,,73,01,125,*5E
$BDGSV,2,1,07,230,73,128,,213,37,056,,229,32,207,,227,32,051,*6A
$BDGSV,2,2,07,208,23,033,,205,15,119,,214,02,356,*6B
$GPGSA,A,3,02,12,29,31,32,,,,,,,,1.7,0.9,1.5*30
$GNGSA,A,3,02,12,29,31,32,,,,,,,,1.7,0.9,1.5*2E
$GNGSA,A,3,67,76,86,,,,,,,,,,1.7,0.9,1.5*29
$QZGSA,A,3,,,,,,,,,,,,,1.7,0.9,1.5*25
$IMGSA,A,3,,,,,,,,,,,,,1.7,0.9,1.5*2A
$BDGSA,A,3,,,,,,,,,,,,,1.7,0.9,1.5*28
$GAGSA,A,3,,,,,,,,,,,,,1.7,0.9,1.5*28
$GPRMC,165200.00,A,4943.225643,N,00537.410613,E,057.4,281.8,140220,,,A*50
$GPGGA,165201.00,4943.228792,N,00537.385592,E,1,11,2.4,350.1,M,47.6,M,,*66
$PGLOR,9,STA,165201.00,0.009,0.000,-229,3,24,0,P,F,L,0,C,2,S,00100182,1816,4,R,000833F4,TPeF,17,166564,LC,,,*76
$GPGSV,3,1,10,25,72,078,12,29,71,207,18,31,45,300,19,12,33,090,21*74
$GPGSV,3,2,10,02,31,055,14,14,29,260,13,32,17,233,20,06,08,028,11*77
$GPGSV,3,3,10,21,03,182,,24,03,150,*72
$GLGSV,2,1,07,75,76,340,16,85,64,169,10,76,25,312,20,67,12,348,18*62
$GLGSV,2,2,07,86,12,198,23,66,12,298,,73,01,125,*5D
$BDGSV,2,1,07,230,73,128,,213,37,056,,229,32,207,,227,32,051,*6A
$BDGSV,2,2,07,208,23,033,,205,15,119,,214,02,356,*6B
$GPGSA,A,3,02,12,14,29,31,32,,,,,,,1.8,1.0,1.5*32
$GNGSA,A,3,02,12,14,29,31,32,,,,,,,1.8,1.0,1.5*2C
$GNGSA,A,3,67,76,86,,,,,,,,,,1.8,1.0,1.5*2E
$QZGSA,A,3,,,,,,,,,,,,,1.8,1.0,1.5*22
$IMGSA,A,3,,,,,,,,,,,,,1.8,1.0,1.5*2D
$BDGSA,A,3,,,,,,,,,,,,,1.8,1.0,1.5*2F
$GAGSA,A,3,,,,,,,,,,,,,1.8,1.0,1.5*2F
$GPRMC,165201.00,A,4943.228792,N,00537.385592,E,057.8,281.1,140220,,,A*55
$GPGGA,165202.00,4943.231737,N,00537.359664,E,1,10,2.4,350.3,M,47.6,M,,*6A
$PGLOR,9,STA,165202.00,0.009,0.000,-230,3,24,0,P,F,L,0,C,2,S,00100182,1847,4,R,000833F4,TPeF,17,167564,LC,,,*78
$GPGSV,3,1,10,25,72,078,12,29,71,207,18,31,45,300,18,12,33,090,20*74
$GPGSV,3,2,10,02,31,055,14,14,29,260,13,32,17,233,19,06,08,028,11*7D
$GPGSV,3,3,10,21,03,182,,24,03,150,*72
$GLGSV,2,1,07,75,76,340,16,85,64,169,10,76,25,312,19,67,12,348,18*68
$GLGSV,2,2,07,86,12,198,24,66,12,298,,73,01,125,*5A
$BDGSV,2,1,07,230,73,128,,213,37,056,,229,32,207,,227,32,051,*6A
$BDGSV,2,2,07,208,23,033,,205,15,119,,214,02,356,*6B
$GPGSA,A,3,02,12,29,31,32,,,,,,,,1.9,1.1,1.5*37
$GNGSA,A,3,02,12,29,31,32,,,,,,,,1.9,1.1,1.5*29
$GNGSA,A,3,67,76,86,,,,,,,,,,1.9,1.1,1.5*2E
$QZGSA,A,3,,,,,,,,,,,,,1.9,1.1,1.5*22
$IMGSA,A,3,,,,,,,,,,,,,1.9,1.1,1.5*2D
$BDGSA,A,3,,,,,,,,,,,,,1.9,1.1,1.5*2F
$GAGSA,A,3,,,,,,,,,,,,,1.9,1.1,1.5*2F
$GPRMC,165202.00,A,4943.231737,N,00537.359664,E,058.3,279.9,140220,,,A*51
$GPGGA,165203.00,4943.234202,N,00537.333633,E,1,09,3.2,350.6,M,47.6,M,,*69
$PGLOR,9,STA,165203.00,0.009,0.000,-229,4,32,0,P,F,L,0,C,2,S,00100182,1879,4,R,000833F4,TPeF,17,168564,LC,,,*73
$GPGSV,3,1,10,25,72,078,12,29,71,207,18,31,45,300,18,12,33,090,20*74
$GPGSV,3,2,10,02,31,055,13,14,29,260,12,32,17,233,19,06,08,028,11*7B
$GPGSV,3,3,10,21,03,182,,24,03,150,*72
$GLGSV,2,1,07,75,76,340,15,85,64,169,10,76,25,312,23,67,12,348,17*6D
$GLGSV,2,2,07,86,12,198,23,66,12,298,,73,01,125,*5D
$BDGSV,2,1,07,230,73,128,,213,37,056,,229,32,207,,227,32,051,*6A
$BDGSV,2,2,07,208,23,033,,205,15,119,,214,02,356,*6B
$GPGSA,A,3,12,29,31,32,,,,,,,,,2.2,1.2,1.8*33
$GNGSA,A,3,12,29,31,32,,,,,,,,,2.2,1.2,1.8*2D
$GNGSA,A,3,67,76,86,,,,,,,,,,2.2,1.2,1.8*28
$QZGSA,A,3,,,,,,,,,,,,,2.2,1.2,1.8*24
$IMGSA,A,3,,,,,,,,,,,,,2.2,1.2,1.8*2B
$BDGSA,A,3,,,,,,,,,,,,,2.2,1.2,1.8*29
$GAGSA,A,3,,,,,,,,,,,,,2.2,1.2,1.8*29
$GPRMC,165203.00,A,4943.234202,N,00537.333633,E,058.8,278.9,140220,,,A*52
$GPGGA,165204.00,4943.236622,N,00537.305901,E,1,07,3.2,350.9,M,47.6,M,,*60
$PGLOR,9,STA,165204.00,0.009,0.000,-228,4,32,0,P,F,L,0,C,2,S,00100182,1912,4,R,000833F4,TPeF,17,169564,LC,,,*78
$GPGSV,3,1,10,25,72,078,11,29,71,207,17,31,45,300,18,12,33,090,20*78
$GPGSV,3,2,10,02,31,055,13,14,29,260,12,32,17,233,18,06,08,028,11*7A
$GPGSV,3,3,10,21,03,182,,24,03,150,*72
$GLGSV,2,1,07,75,76,340,15,85,64,169,10,76,25,312,23,67,12,348,17*6D
$GLGSV,2,2,07,86,12,198,23,66,12,298,,73,01,125,*5D
$BDGSV,2,1,07,230,73,127,,213,37,056,,229,32,207,,227,32,051,*65
$BDGSV,2,2,07,208,23,033,,205,15,119,,214,02,356,*6B
$GPGSA,A,3,12,31,32,,,,,,,,,,2.5,1.0,2.3*35
$GNGSA,A,3,12,31,32,,,,,,,,,,2.5,1.0,2.3*2B
$GNGSA,A,3,67,76,86,,,,,,,,,,2.5,1.0,2.3*25
$QZGSA,A,3,,,,,,,,,,,,,2.5,1.0,2.3*29
$IMGSA,A,3,,,,,,,,,,,,,2.5,1.0,2.3*26
$BDGSA,A,3,,,,,,,,,,,,,2.5,1.0,2.3*24
$GAGSA,A,3,,,,,,,,,,,,,2.5,1.0,2.3*24
$GPRMC,165204.00,A,4943.236622,N,00537.305901,E,059.6,278.3,140220,,,A*5F
$GPGGA,165205.00,4943.239188,N,00537.275619,E,1,08,3.2,351.2,M,47.6,M,,*6C
$PGLOR,9,STA,165205.00,0.009,0.000,-230,4,32,0,P,F,L,0,C,2,S,00100182,1949,4,R,000833F4,TPeF,17,170564,LC,,,*76
$GPGSV,3,1,10,25,72,078,11,29,71,207,17,31,45,300,17,12,33,090,20*77
$GPGSV,3,2,10,02,31,055,13,14,29,259,12,32,17,233,18,06,08,028,10*71
$GPGSV,3,3,10,21,03,182,,24,03,150,*72
$GLGSV,2,1,07,75,76,340,14,85,64,169,10,76,25,312,22,67,12,348,17*6D
$GLGSV,2,2,07,86,12,198,25,66,12,298,,73,01,125,*5B
$BDGSV,2,1,07,230,73,127,,213,37,056,,229,32,207,,227,32,051,*65
$BDGSV,2,2,07,208,23,033,,205,15,119,,214,02,356,*6B
$GPGSA,A,3,12,29,31,32,,,,,,,,,2.5,1.0,2.3*3E
$GNGSA,A,3,12,29,31,32,,,,,,,,,2.5,1.0,2.3*20
$GNGSA,A,3,67,76,86,,,,,,,,,,2.5,1.0,2.3*25
$QZGSA,A,3,,,,,,,,,,,,,2.5,1.0,2.3*29
$IMGSA,A,3,,,,,,,,,,,,,2.5,1.0,2.3*26
$BDGSA,A,3,,,,,,,,,,,,,2.5,1.0,2.3*24
$GAGSA,A,3,,,,,,,,,,,,,2.5,1.0,2.3*24
$GPRMC,165205.00,A,4943.239188,N,00537.275619,E,061.0,276.8,140220,,,A*5E
$GPGGA,165206.00,4943.241156,N,00537.248430,E,1,09,3.2,351.5,M,47.6,M,,*62
$PGLOR,9,STA,165206.00,0.009,0.000,-234,3,32,0,P,F,L,0,C,2,S,00100182,1981,4,R,000833F4,TPeF,17,171564,LC,,,*73
$GPGSV,3,1,10,25,72,078,11,29,71,207,16,31,45,300,17,12,33,090,19*7C
$GPGSV,3,2,10,02,31,055,12,14,29,259,12,32,17,233,18,06,08,028,*71
$GPGSV,3,3,10,21,03,182,,24,03,150,*72
$GLGSV,2,1,07,75,76,340,14,85,64,169,10,76,25,312,22,67,12,348,21*68
$GLGSV,2,2,07,86,12,198,26,66,12,298,,73,01,125,*58
$BDGSV,2,1,07,230,73,127,,213,37,056,,229,32,207,,227,32,051,*65
$BDGSV,2,2,07,208,23,033,,205,15,119,,214,02,356,*6B
$GPGSA,A,3,12,29,31,32,,,,,,,,,1.8,1.0,1.5*35
$GNGSA,A,3,12,29,31,32,,,,,,,,,1.8,1.0,1.5*2B
$GNGSA,A,3,67,76,86,,,,,,,,,,1.8,1.0,1.5*2E
$QZGSA,A,3,,,,,,,,,,,,,1.8,1.0,1.5*22
$IMGSA,A,3,,,,,,,,,,,,,1.8,1.0,1.5*2D
$BDGSA,A,3,,,,,,,,,,,,,1.8,1.0,1.5*2F
$GAGSA,A,3,,,,,,,,,,,,,1.8,1.0,1.5*2F
$GPRMC,165206.00,A,4943.241156,N,00537.248430,E,061.1,275.3,140220,,,A*5F
$GPGGA,165207.00,4943.242768,N,00537.219268,E,1,09,2.4,351.8,M,47.6,M,,*6E
$PGLOR,9,STA,165207.00,0.009,0.000,-234,3,24,0,P,F,L,0,C,2,S,00100182,2017,4,R,000833F4,TPeF,17,172564,LC,,,*73
$GPGSV,3,1,10,25,72,078,11,29,71,207,16,31,45,300,17,12,33,090,19*7C
$GPGSV,3,2,10,02,31,055,12,14,29,259,11,32,17,233,17,06,08,028,*7D
$GPGSV,3,3,10,21,03,182,,24,03,150,*72
$GLGSV,2,1,07,75,76,340,13,85,64,169,10,76,25,312,22,67,12,348,20*6E
$GLGSV,2,2,07,86,12,198,26,66,12,298,,73,01,125,*58
$BDGSV,2,1,07,230,73,127,,213,37,056,,229,32,207,,227,32,051,*65
$BDGSV,2,2,07,208,23,033,,205,15,119,,214,02,356,*6B
$GPGSA,A,3,12,29,31,32,,,,,,,,,1.8,1.0,1.5*35
$GNGSA,A,3,12,29,31,32,,,,,,,,,1.8,1.0,1.5*2B
$GNGSA,A,3,67,76,86,,,,,,,,,,1.8,1.0,1.5*2E
$QZGSA,A,3,,,,,,,,,,,,,1.8,1.0,1.5*22
$IMGSA,A,3,,,,,,,,,,,,,1.8,1.0,1.5*2D
$BDGSA,A,3,,,,,,,,,,,,,1.8,1.0,1.5*2F
$GAGSA,A,3,,,,,,,,,,,,,1.8,1.0,1.5*2F
$GPRMC,165207.00,A,4943.242768,N,00537.219268,E,061.8,274.6,140220,,,A*54
$GPGGA,165208.00,4943.243973,N,00537.193469,E,1,09,1.6,352.0,M,47.6,M,,*68
$PGLOR,9,STA,165208.00,0.009,0.000,-235,3,16,0,P,F,L,0,C,2,S,00100182,2048,4,R,000833F4,TPeF,17,173564,LC,,,*77
$GPGSV,3,1,10,25,72,078,12,29,71,207,16,31,45,300,17,12,33,090,21*74
$GPGSV,3,2,10,02,31,055,12,14,29,259,11,32,17,233,17,06,08,028,*7D
$GPGSV,3,3,10,21,03,182,,24,03,150,*72
$GLGSV,2,1,07,75,76,340,13,85,64,169,11,76,25,312,22,67,12,348,20*6F
$GLGSV,2,2,07,86,12,198,29,66,12,298,,73,01,125,*57
$BDGSV,2,1,07,230,73,127,,213,37,056,,229,32,207,,227,32,051,*65
$BDGSV,2,2,07,208,23,033,,205,15,119,,214,02,356,*6B
$GPGSA,A,3,12,25,29,31,32,,,,,,,,2.2,1.2,1.8*34
$GNGSA,A,3,12,25,29,31,32,,,,,,,,2.2,1.2,1.8*2A
$GNGSA,A,3,76,86,,,,,,,,,,,2.2,1.2,1.8*29
$QZGSA,A,3,,,,,,,,,,,,,2.2,1.2,1.8*24
$IMGSA,A,3,,,,,,,,,,,,,2.2,1.2,1.8*2B
$BDGSA,A,3,,,,,,,,,,,,,2.2,1.2,1.8*29
$GAGSA,A,3,,,,,,,,,,,,,2.2,1.2,1.8*29
$GPRMC,165208.00,A,4943.243973,N,00537.193469,E,062.6,272.7,140220,,,A*52
$GPGGA,165209.00,4943.244449,N,00537.166842,E,1,10,1.6,352.2,M,47.6,M,,*6F
$PGLOR,9,STA,165209.00,0.009,0.000,-233,3,16,0,P,F,L,0,C,2,S,00100182,2079,4,R,000833F4,TPeF,17,174564,LC,,,*75
$GPGSV,3,1,10,25,72,078,14,29,71,207,16,31,45,300,17,12,33,090,21*72
$GPGSV,3,2,10,02,31,055,11,14,29,259,11,32,17,233,17,06,08,028,*7E
$GPGSV,3,3,10,21,03,182,,24,03,150,*72
$GLGSV,2,1,07,75,76,340,13,85,64,169,11,76,25,312,21,67,12,348,19*66
$GLGSV,2,2,07,86,12,198,30,66,12,298,,73,01,125,*5F
$BDGSV,2,1,07,230,73,127,,213,37,056,,229,32,207,,227,32,051,*65
$BDGSV,2,2,07,208,23,033,,205,15,119,,214,02,356,*6B
$GPGSA,A,3,12,25,29,31,32,,,,,,,,2.2,1.2,1.8*34
$GNGSA,A,3,12,25,29,31,32,,,,,,,,2.2,1.2,1.8*2A
$GNGSA,A,3,75,76,86,,,,,,,,,,2.2,1.2,1.8*2B
$QZGSA,A,3,,,,,,,,,,,,,2.2,1.2,1.8*24
$IMGSA,A,3,,,,,,,,,,,,,2.2,1.2,1.8*2B
$BDGSA,A,3,,,,,,,,,,,,,2.2,1.2,1.8*29
$GAGSA,A,3,,,,,,,,,,,,,2.2,1.2,1.8*29
$GPRMC,165209.00,A,4943.244449,N,00537.166842,E,063.8,271.0,140220,,,A*54
$GPGGA,165210.00,4943.244401,N,00537.139219,E,1,10,2.4,352.3,M,47.6,M,,*65
$PGLOR,9,STA,165210.00,0.009,0.000,-232,3,24,0,P,F,L,0,C,2,S,00100182,2112,4,R,000833F4,TPeF,17,175564,LC,,,*70
$GPGSV,3,1,10,25,72,078,14,29,71,207,16,31,45,300,16,12,33,090,20*72
$GPGSV,3,2,10,02,31,055,11,14,29,259,11,32,17,233,16,06,08,028,*7F
$GPGSV,3,3,10,21,03,182,,24,03,150,*72
$GLGSV,2,1,07,75,76,340,13,85,64,169,11,76,25,312,21,67,12,348,18*67
$GLGSV,2,2,07,86,12,198,29,66,12,298,,73,01,125,*57
$BDGSV,2,1,07,230,73,127,,213,37,056,,229,32,207,,227,32,051,*65
$BDGSV,2,2,07,208,23,033,,205,15,119,,214,02,356,*6B
$GPGSA,A,3,12,25,29,31,32,,,,,,,,2.2,1.2,1.8*34
$GNGSA,A,3,12,25,29,31,32,,,,,,,,2.2,1.2,1.8*2A
$GNGSA,A,3,75,76,86,,,,,,,,,,2.2,1.2,1.8*2B
$QZGSA,A,3,,,,,,,,,,,,,2.2,1.2,1.8*24
$IMGSA,A,3,,,,,,,,,,,,,2.2,1.2,1.8*2B
$BDGSA,A,3,,,,,,,,,,,,,2.2,1.2,1.8*29
$GAGSA,A,3,,,,,,,,,,,,,2.2,1.2,1.8*29
$GPRMC,165210.00,A,4943.244401,N,00537.139219,E,064.8,269.5,140220,,,A*55
$GPGGA,165211.00,4943.243603,N,00537.107350,E,1,10,1.6,352.4,M,47.6,M,,*64
$PGLOR,9,STA,165211.00,0.009,0.000,-233,3,16,0,P,F,L,0,C,2,S,00100182,2151,4,R,000833F4,TPeF,17,176564,LC,,,*75
$GPGSV,3,1,10,25,72,078,14,29,71,207,15,31,45,300,16,12,33,090,21*70
$GPGSV,3,2,10,02,31,055,13,14,29,259,10,32,17,233,16,06,08,028,*7C
$GPGSV,3,3,10,21,03,182,,24,03,150,*72
$GLGSV,2,1,07,75,76,340,13,85,64,169,12,76,25,312,21,67,12,348,17*6B
$GLGSV,2,2,07,86,12,198,29,66,12,298,,73,01,125,*57
$BDGSV,2,1,07,230,73,127,,213,37,056,,229,32,207,,227,32,051,*65
$BDGSV,2,2,07,208,23,033,,205,15,119,,214,02,356,*6B
$GPGSA,A,3,02,12,25,29,31,32,,,,,,,2.0,1.1,1.6*39
$GNGSA,A,3,02,12,25,29,31,32,,,,,,,2.0,1.1,1.6*27
$GNGSA,A,3,75,76,86,,,,,,,,,,2.0,1.1,1.6*24
$QZGSA,A,3,,,,,,,,,,,,,2.0,1.1,1.6*2B
$IMGSA,A,3,,,,,,,,,,,,,2.0,1.1,1.6*24
$BDGSA,A,3,,,,,,,,,,,,,2.0,1.1,1.6*26
$GAGSA,A,3,,,,,,,,,,,,,2.0,1.1,1.6*26
$GPRMC,165211.00,A,4943.243603,N,00537.107350,E,065.8,269.2,140220,,,A*54
$GPGGA,165212.00,4943.242327,N,00537.074607,E,1,09,2.4,352.7,M,47.6,M,,*6D
$PGLOR,9,STA,165212.00,0.009,0.000,-231,3,24,0,P,F,L,0,C,2,S,00100182,2190,4,R,000833F4,TPeF,17,177564,LC,,,*79
$GPGSV,3,1,10,25,72,078,14,29,71,207,15,31,45,300,16,12,33,090,21*70
$GPGSV,3,2,10,02,31,055,13,14,29,259,10,32,17,233,16,06,08,028,*7C
$GPGSV,3,3,10,21,03,182,,24,03,150,*72
$GLGSV,2,1,07,75,76,340,13,85,64,169,12,76,25,312,21,67,12,348,17*6B
$GLGSV,2,2,07,86,12,198,28,66,12,298,,73,01,125,*56
$BDGSV,2,1,07,230,73,127,,213,37,056,,229,32,207,,227,32,051,*65
$BDGSV,2,2,07,208,23,033,,205,15,119,,214,02,356,*6B
$GPGSA,A,3,02,12,25,29,31,32,,,,,,,2.0,1.1,1.6*39
$GNGSA,A,3,02,12,25,29,31,32,,,,,,,2.0,1.1,1.6*27
$GNGSA,A,3,76,86,,,,,,,,,,,2.0,1.1,1.6*26
$QZGSA,A,3,,,,,,,,,,,,,2.0,1.1,1.6*2B
$IMGSA,A,3,,,,,,,,,,,,,2.0,1.1,1.6*24
$BDGSA,A,3,,,,,,,,,,,,,2.0,1.1,1.6*26
$GAGSA,A,3,,,,,,,,,,,,,2.0,1.1,1.6*26
$GPRMC,165212.00,A,4943.242327,N,00537.074607,E,067.6,268.4,140220,,,A*5C
$GPGGA,165213.00,4943.241405,N,00537.044751,E,1,10,2.4,352.9,M,47.6,M,,*6F
$PGLOR,9,STA,165213.00,0.009,0.000,-226,2,24,0,P,F,L,0,C,2,S,00100182,2226,4,R,000833F4,TPeF,17,178564,LC,,,*7E
$PGLOR,2,PFM,HAL,P,0,0,100,0,RF,P,28,70.3,1,RTC,,P,STO,P,LTO,P,SW,P,,,OSC,PPF*19
$GPGSV,3,1,10,25,72,078,14,29,71,207,15,31,45,300,16,12,33,090,21*70
$GPGSV,3,2,10,02,31,055,14,14,29,259,,32,17,233,16,06,08,028,*7A
$GPGSV,3,3,10,21,03,182,,24,03,150,*72
$GLGSV,2,1,07,75,76,340,13,85,64,169,12,76,25,312,22,67,12,348,16*69
$GLGSV,2,2,07,86,12,198,28,66,12,298,,73,01,125,*56
$BDGSV,2,1,07,230,73,127,,213,37,056,,229,32,207,,227,32,051,*65
$BDGSV,2,2,07,208,23,033,,205,15,119,,214,02,355,*68
$GPGSA,A,3,02,12,25,29,31,32,,,,,,,1.8,1.0,1.5*30
$GNGSA,A,3,02,12,25,29,31,32,,,,,,,1.8,1.0,1.5*2E
$GNGSA,A,3,67,75,76,86,,,,,,,,,1.8,1.0,1.5*2C
$QZGSA,A,3,,,,,,,,,,,,,1.8,1.0,1.5*22
$IMGSA,A,3,,,,,,,,,,,,,1.8,1.0,1.5*2D
$BDGSA,A,3,,,,,,,,,,,,,1.8,1.0,1.5*2F
$GAGSA,A,3,,,,,,,,,,,,,1.8,1.0,1.5*2F
$GPRMC,165213.00,A,4943.241405,N,00537.044751,E,067.8,268.4,140220,,,A*56
$GPGGA,165214.00,4943.240347,N,00537.014511,E,1,09,2.4,353.2,M,47.6,M,,*69
$PGLOR,9,STA,165214.00,0.009,0.000,-228,2,24,0,P,F,L,0,C,2,S,00100182,2262,4,R,000833F4,TPeF,17,179564,LC,,,*76
$GPGSV,3,1,10,25,72,078,14,29,71,207,15,31,45,300,16,12,33,090,20*71
$GPGSV,3,2,10,02,31,055,14,14,29,259,,32,17,233,16,06,08,028,*7A
$GPGSV,3,3,10,24,03,150,,21,03,182,*72
$GLGSV,2,1,07,75,76,340,13,85,64,169,12,76,25,312,22,66,12,298,20*61
$GLGSV,2,2,07,67,12,348,16,86,12,198,29,73,01,125,*5D
$BDGSV,2,1,07,230,73,127,,213,37,056,,229,32,207,,227,32,051,*65
$BDGSV,2,2,07,208,23,033,,205,15,119,,214,02,355,*68
$GPGSA,A,3,02,12,25,29,31,32,,,,,,,1.8,1.0,1.5*30
$GNGSA,A,3,02,12,25,29,31,32,,,,,,,1.8,1.0,1.5*2E
$GNGSA,A,3,66,76,86,,,,,,,,,,1.8,1.0,1.5*2F
$QZGSA,A,3,,,,,,,,,,,,,1.8,1.0,1.5*22
$IMGSA,A,3,,,,,,,,,,,,,1.8,1.0,1.5*2D
$BDGSA,A,3,,,,,,,,,,,,,1.8,1.0,1.5*2F
$GAGSA,A,3,,,,,,,,,,,,,1.8,1.0,1.5*2F
$GPRMC,165214.00,A,4943.240347,N,00537.014511,E,067.5,268.2,140220,,,A*59
$GPGGA,165215.00,4943.239324,N,00536.984644,E,1,10,2.4,353.4,M,47.6,M,,*6F
$PGLOR,9,STA,165215.00,0.009,0.000,-228,1,24,0,P,F,L,0,C,2,S,00100182,2298,4,R,000833F4,TPeF,17,180564,LC,,,*77
$GPGSV,3,1,10,25,72,078,14,29,71,207,15,31,45,300,16,12,33,090,20*71
$GPGSV,3,2,10,02,31,055,15,14,29,259,,32,17,233,16,06,08,028,*7B
$GPGSV,3,3,10,24,03,150,,21,03,182,*72
$GLGSV,2,1,07,75,76,340,13,85,64,169,12,76,25,312,24,66,12,298,19*6D
$GLGSV,2,2,07,67,12,348,15,86,12,198,30,73,01,125,*56
$BDGSV,2,1,07,230,73,127,,213,37,056,,229,32,207,,227,32,051,*65
$BDGSV,2,2,07,208,23,033,,205,15,119,,214,02,355,*68
$GPGSA,A,3,02,12,25,29,31,32,,,,,,,1.5,0.9,1.2*32
$GNGSA,A,3,02,12,25,29,31,32,,,,,,,1.5,0.9,1.2*2C
$GNGSA,A,3,66,75,76,86,,,,,,,,,1.5,0.9,1.2*2F
$QZGSA,A,3,,,,,,,,,,,,,1.5,0.9,1.2*20
$IMGSA,A,3,,,,,,,,,,,,,1.5,0.9,1.2*2F
$BDGSA,A,3,,,,,,,,,,,,,1.5,0.9,1.2*2D
$GAGSA,A,3,,,,,,,,,,,,,1.5,0.9,1.2*2D
$GPRMC,165215.00,A,4943.239324,N,00536.984644,E,068.2,268.2,140220,,,A*59
$GPGGA,165216.00,4943.238483,N,00536.955614,E,1,10,2.4,353.7,M,47.6,M,,*6D
$PGLOR,9,STA,165216.00,0.009,0.000,-228,1,24,0,P,F,L,0,C,2,S,00100182,2333,4,R,000833F4,TPeF,17,181564,LC,,,*75
$GPGSV,3,1,10,25,72,078,14,29,71,207,15,31,45,300,16,12,33,090,20*71
$GPGSV,3,2,10,02,31,055,15,14,29,259,09,32,17,233,17,06,08,028,*73
$GPGSV,3,3,10,24,03,150,,21,03,182,*72
$GLGSV,2,1,07,75,76,340,13,85,64,169,12,76,25,312,24,66,12,298,19*6D
$GLGSV,2,2,07,67,12,348,15,86,12,198,30,73,01,125,*56
$BDGSV,2,1,07,230,73,127,,213,37,056,,229,32,207,,227,32,051,*65
$BDGSV,2,2,07,208,23,033,,205,15,119,,214,02,355,*68
$GPGSA,A,3,02,12,25,29,31,32,,,,,,,1.7,1.1,1.3*38
$GNGSA,A,3,02,12,25,29,31,32,,,,,,,1.7,1.1,1.3*26
$GNGSA,A,3,66,75,76,86,,,,,,,,,1.7,1.1,1.3*25
$QZGSA,A,3,,,,,,,,,,,,,1.7,1.1,1.3*2A
$IMGSA,A,3,,,,,,,,,,,,,1.7,1.1,1.3*25
$BDGSA,A,3,,,,,,,,,,,,,1.7,1.1,1.3*27
$GAGSA,A,3,,,,,,,,,,,,,1.7,1.1,1.3*27
$GPRMC,165216.00,A,4943.238483,N,00536.955614,E,067.7,268.2,140220,,,A*52
$GPGGA,165217.00,4943.237624,N,00536.926360,E,1,11,2.4,353.8,M,47.6,M,,*60
$PGLOR,9,STA,165217.00,0.009,0.000,-228,1,24,0,P,F,L,0,C,2,S,00100182,2368,4,R,000833F4,TPeF,17,182564,LC,,,*79
$GPGSV,3,1,10,25,72,078,15,29,71,207,15,31,45,300,16,12,33,090,20*70
$GPGSV,3,2,10,02,31,055,15,14,29,259,09,32,17,233,18,06,08,028,*7C
$GPGSV,3,3,10,24,03,150,,21,03,182,*72
$GLGSV,2,1,07,75,76,340,13,85,64,169,11,76,25,312,24,66,12,298,19*6E
$GLGSV,2,2,07,67,12,348,15,86,12,198,30,73,01,125,*56
$BDGSV,2,1,07,230,73,127,,213,37,056,,229,32,207,,227,32,051,*65
$BDGSV,2,2,07,208,23,033,,205,15,119,,214,02,355,*68
$GPGSA,A,3,02,12,25,29,31,32,,,,,,,1.5,0.9,1.2*32
$GNGSA,A,3,02,12,25,29,31,32,,,,,,,1.5,0.9,1.2*2C
$GNGSA,A,3,66,67,75,76,86,,,,,,,,1.5,0.9,1.2*2E
$QZGSA,A,3,,,,,,,,,,,,,1.5,0.9,1.2*20
$IMGSA,A,3,,,,,,,,,,,,,1.5,0.9,1.2*2F
$BDGSA,A,3,,,,,,,,,,,,,1.5,0.9,1.2*2D
$GAGSA,A,3,,,,,,,,,,,,,1.5,0.9,1.2*2D
$GPRMC,165217.00,A,4943.237624,N,00536.926360,E,067.7,268.2,140220,,,A*51
$GPGGA,165218.00,4943.236707,N,00536.896647,E,1,10,2.4,354.0,M,47.6,M,,*6A
$PGLOR,9,STA,165218.00,0.009,0.000,-228,1,24,0,P,F,L,0,C,2,S,00100182,2403,4,R,000833F4,TPeF,17,183564,LC,,,*7D
$GPGSV,3,1,10,25,72,078,15,29,71,207,15,31,45,300,16,12,33,090,20*70
$GPGSV,3,2,10,02,31,055,15,14,29,259,,32,17,233,18,06,08,028,*75
$GPGSV,3,3,10,24,03,150,,21,03,182,*72
$GLGSV,2,1,07,75,76,340,13,85,64,169,11,76,25,312,24,66,12,298,18*6F
$GLGSV,2,2,07,67,12,348,14,86,12,198,29,73,01,125,*5F
$BDGSV,2,1,07,230,73,127,,213,37,056,,229,32,207,,227,32,051,*65
$BDGSV,2,2,07,208,23,033,,205,15,119,,214,02,355,*68
$GPGSA,A,3,02,12,25,29,31,32,,,,,,,1.7,1.0,1.3*39
$GNGSA,A,3,02,12,25,29,31,32,,,,,,,1.7,1.0,1.3*27
$GNGSA,A,3,66,75,76,86,,,,,,,,,1.7,1.0,1.3*24
$QZGSA,A,3,,,,,,,,,,,,,1.7,1.0,1.3*2B
$IMGSA,A,3,,,,,,,,,,,,,1.7,1.0,1.3*24
$BDGSA,A,3,,,,,,,,,,,,,1.7,1.0,1.3*26
$GAGSA,A,3,,,,,,,,,,,,,1.7,1.0,1.3*26
$GPRMC,165218.00,A,4943.236707,N,00536.896647,E,067.9,267.8,140220,,,A*5E
$GPGGA,165219.00,4943.235807,N,00536.866583,E,1,10,2.4,354.2,M,47.6,M,,*61
$PGLOR,9,STA,165219.00,0.009,0.000,-228,1,24,0,P,F,L,0,C,2,S,00100182,2439,4,R,000833F4,TPeF,17,184564,LC,,,*72
$GPGSV,3,1,10,25,72,078,15,29,71,207,15,31,46,300,16,12,33,090,20*73
$GPGSV,3,2,10,02,31,055,15,14,29,259,,32,17,233,18,06,08,028,*75
$GPGSV,3,3,10,24,03,150,,21,03,182,*72
$GLGSV,2,1,07,75,76,340,13,85,64,169,11,76,25,312,23,66,12,298,18*68
$GLGSV,2,2,07,67,12,348,14,86,12,198,28,73,01,125,*5E
$BDGSV,2,1,07,230,73,127,,213,37,056,,229,32,207,,227,32,051,*65
$BDGSV,2,2,07,208,23,033,,205,15,119,,214,02,355,*68
$GPGSA,A,3,02,12,25,29,31,32,,,,,,,1.7,1.0,1.3*39
$GNGSA,A,3,02,12,25,29,31,32,,,,,,,1.7,1.0,1.3*27
$GNGSA,A,3,66,75,76,86,,,,,,,,,1.7,1.0,1.3*24
$QZGSA,A,3,,,,,,,,,,,,,1.7,1.0,1.3*2B
$IMGSA,A,3,,,,,,,,,,,,,1.7,1.0,1.3*24
$BDGSA,A,3,,,,,,,,,,,,,1.7,1.0,1.3*26
$GAGSA,A,3,,,,,,,,,,,,,1.7,1.0,1.3*26
$GPRMC,165219.00,A,4943.235807,N,00536.866583,E,067.4,268.3,140220,,,A*5E
$GPGGA,165220.00,4943.235142,N,00536.837301,E,1,11,1.6,354.4,M,47.6,M,,*6D
$PGLOR,9,STA,165220.00,0.009,0.000,-228,1,16,0,P,F,L,0,C,2,S,00100182,2474,4,R,000833F4,TPeF,17,185564,LC,,,*71
$GPGSV,3,1,10,25,72,078,15,29,71,207,15,31,46,300,19,12,33,090,20*7C
$GPGSV,3,2,10,02,31,055,15,14,29,259,09,32,17,233,18,06,08,028,11*7C
$GPGSV,3,3,10,24,03,150,,21,03,182,*72
$GLGSV,2,1,07,75,76,340,13,85,64,169,11,76,25,312,23,66,12,298,17*67
$GLGSV,2,2,07,67,12,348,14,86,12,198,28,73,01,125,*5E
$BDGSV,2,1,07,230,73,127,,213,37,056,,229,32,207,,227,32,051,*65
$BDGSV,2,2,07,208,23,033,,205,15,119,,214,02,355,*68
$GPGSA,A,3,02,12,25,29,31,32,,,,,,,1.7,1.0,1.3*39
$GNGSA,A,3,02,12,25,29,31,32,,,,,,,1.7,1.0,1.3*27
$GNGSA,A,3,66,75,76,86,,,,,,,,,1.7,1.0,1.3*24
$QZGSA,A,3,,,,,,,,,,,,,1.7,1.0,1.3*2B
$IMGSA,A,3,,,,,,,,,,,,,1.7,1.0,1.3*24
$BDGSA,A,3,,,,,,,,,,,,,1.7,1.0,1.3*26
$GAGSA,A,3,,,,,,,,,,,,,1.7,1.0,1.3*26
$GPRMC,165220.00,A,4943.235142,N,00536.837301,E,067.6,267.5,140220,,,A*5F
$GPGGA,165221.00,4943.234173,N,00536.807811,E,1,10,2.4,354.4,M,47.6,M,,*66
$PGLOR,9,STA,165221.00,0.009,0.000,-228,1,24,0,P,F,L,0,C,2,S,00100002,2510,4,R,000833F4,TPeF,17,186564,LC,,,*78
$GPGSV,3,1,10,25,72,078,15,29,71,207,15,31,46,300,19,12,33,090,19*76
$GPGSV,3,2,10,02,31,055,15,14,29,259,08,32,17,233,17,06,08,028,11*72
$GPGSV,3,3,10,24,03,150,,21,03,182,*72
$GLGSV,2,1,07,75,76,340,14,85,64,169,11,76,25,312,22,66,12,298,17*61
$GLGSV,2,2,07,67,12,348,13,86,12,198,27,73,01,125,*56
$BDGSV,2,1,07,230,73,127,,213,37,056,,229,32,207,,227,32,051,*65
$BDGSV,2,2,07,208,23,033,,205,15,119,,214,02,355,*68
$GPGSA,A,3,02,12,25,29,31,,,,,,,,1.7,1.0,1.4*3F
$GNGSA,A,3,02,12,25,29,31,,,,,,,,1.7,1.0,1.4*21
$GNGSA,A,3,66,75,76,86,,,,,,,,,1.7,1.0,1.4*23
$QZGSA,A,3,,,,,,,,,,,,,1.7,1.0,1.4*2C
$IMGSA,A,3,,,,,,,,,,,,,1.7,1.0,1.4*23
$BDGSA,A,3,,,,,,,,,,,,,1.7,1.0,1.4*21
$GAGSA,A,3,,,,,,,,,,,,,1.7,1.0,1.4*21
$GPRMC,165221.00,A,4943.234173,N,00536.807811,E,067.6,269.7,140220,,,A*58
$GPGGA,165222.00,4943.233989,N,00536.778289,E,1,09,2.4,354.5,M,47.6,M,,*6A
$PGLOR,9,STA,165222.00,0.009,0.000,-229,1,24,0,P,F,L,0,C,2,S,00100002,2545,4,R,000833F4,TPeF,17,187564,LC,,,*7B
$GPGSV,3,1,10,25,72,078,18,29,71,207,14,31,46,300,19,12,33,090,19*7A
$GPGSV,3,2,10,02,31,055,14,14,29,259,08,32,17,233,17,06,08,028,11*73
$GPGSV,3,3,10,24,03,150,,21,03,182,*72
$GLGSV,2,1,07,75,76,340,15,85,64,169,11,76,25,312,22,66,12,298,17*60
$GLGSV,2,2,07,67,12,348,13,86,12,198,26,73,01,125,*57
$BDGSV,2,1,07,230,73,127,,213,37,056,,229,32,207,,227,32,051,*65
$BDGSV,2,2,07,208,23,033,,205,15,119,,214,02,355,*68
$GPGSA,A,3,02,12,25,29,31,,,,,,,,1.9,1.2,1.5*32
$GNGSA,A,3,02,12,25,29,31,,,,,,,,1.9,1.2,1.5*2C
$GNGSA,A,3,66,75,76,86,,,,,,,,,1.9,1.2,1.5*2E
$QZGSA,A,3,,,,,,,,,,,,,1.9,1.2,1.5*21
$IMGSA,A,3,,,,,,,,,,,,,1.9,1.2,1.5*2E
$BDGSA,A,3,,,,,,,,,,,,,1.9,1.2,1.5*2C
$GAGSA,A,3,,,,,,,,,,,,,1.9,1.2,1.5*2C
$GPRMC,165222.00,A,4943.233989,N,00536.778289,E,068.1,267.2,140220,,,A*5E
$GPGGA,165223.00,4943.232993,N,00536.749660,E,1,08,2.4,354.7,M,47.6,M,,*63
$PGLOR,9,STA,165223.00,0.009,0.000,-229,1,24,0,P,F,L,0,C,2,S,00100002,2579,4,R,000833F4,TPeF,17,188564,LC,,,*7A
$GPGSV,3,1,10,25,72,078,18,29,71,207,14,31,46,300,20,12,33,090,19*70
$GPGSV,3,2,10,02,31,055,14,14,29,259,08,32,17,233,16,06,08,028,11*72
$GPGSV,3,3,10,24,03,150,,21,03,182,*72
$GLGSV,2,1,07,75,76,340,15,85,64,169,11,76,25,312,22,66,12,298,16*61
$GLGSV,2,2,07,67,12,348,13,86,12,198,24,73,01,125,*55
$BDGSV,2,1,07,230,73,127,,213,37,056,,229,32,207,,227,32,051,*65
$BDGSV,2,2,07,208,23,033,,205,15,119,,214,02,355,*68
$GPGSA,A,3,02,12,25,29,31,,,,,,,,2.9,2.3,1.8*3E
$GNGSA,A,3,02,12,25,29,31,,,,,,,,2.9,2.3,1.8*20
$GNGSA,A,3,66,75,76,,,,,,,,,,2.9,2.3,1.8*2C
$QZGSA,A,3,,,,,,,,,,,,,2.9,2.3,1.8*2D
$IMGSA,A,3,,,,,,,,,,,,,2.9,2.3,1.8*22
$BDGSA,A,3,,,,,,,,,,,,,2.9,2.3,1.8*20
$GAGSA,A,3,,,,,,,,,,,,,2.9,2.3,1.8*20
$GPRMC,165223.00,A,4943.232993,N,00536.749660,E,068.0,267.6,140220,,,A*51
$GPGGA,165224.00,4943.232099,N,00536.720841,E,1,08,2.4,355.0,M,47.6,M,,*63
$PGLOR,9,STA,165224.00,0.009,0.000,-229,1,24,0,P,F,L,0,C,2,S,00100002,2614,4,R,000833F4,TPeF,17,189564,LC,,,*74
$GPGSV,3,1,10,25,72,078,18,29,71,207,14,31,46,300,20,12,33,090,19*70
$GPGSV,3,2,10,02,31,055,14,14,29,259,08,32,17,233,15,06,08,028,11*71
$GPGSV,3,3,10,24,03,150,,21,03,182,*72
$GLGSV,2,1,07,75,76,340,15,85,65,169,10,76,25,312,24,66,12,298,16*67
$GLGSV,2,2,07,67,12,348,13,86,12,198,23,73,01,125,*52
$BDGSV,2,1,07,230,73,127,,213,37,056,,229,32,207,,227,32,051,*65
$BDGSV,2,2,07,208,23,033,,205,15,119,,214,02,355,*68
$GPGSA,A,3,02,12,25,29,31,,,,,,,,3.5,2.5,2.5*3B
$GNGSA,A,3,02,12,25,29,31,,,,,,,,3.5,2.5,2.5*25
$GNGSA,A,3,66,75,76,,,,,,,,,,3.5,2.5,2.5*29
$QZGSA,A,3,,,,,,,,,,,,,3.5,2.5,2.5*28
$IMGSA,A,3,,,,,,,,,,,,,3.5,2.5,2.5*27
$BDGSA,A,3,,,,,,,,,,,,,3.5,2.5,2.5*25
$GAGSA,A,3,,,,,,,,,,,,,3.5,2.5,2.5*25
$GPRMC,165224.00,A,4943.232099,N,00536.720841,E,068.2,267.6,140220,,,A*55
$GPGGA,165225.00,4943.231190,N,00536.691750,E,1,08,2.4,355.4,M,47.6,M,,*69
$PGLOR,9,STA,165225.00,0.009,0.000,-229,1,24,0,P,F,L,0,C,2,S,00100002,2649,4,R,000833F4,TPeF,17,190564,LC,,,*75
$GPGSV,3,1,10,25,72,078,18,29,71,207,15,31,46,300,19,12,33,090,19*7B
$GPGSV,3,2,10,02,31,055,14,14,29,259,08,32,17,233,15,06,08,028,11*71
$GPGSV,3,3,10,24,03,150,,21,03,182,*72
$GLGSV,2,1,07,75,76,340,16,85,65,169,10,76,25,312,25,66,12,298,16*65
$GLGSV,2,2,07,67,12,348,13,86,12,198,22,73,01,125,*53
$BDGSV,2,1,07,230,73,127,,213,37,056,,229,32,207,,227,32,051,*65
$BDGSV,2,2,07,208,23,033,,205,15,119,,214,02,355,*68
$GPGSA,A,3,02,12,25,29,31,,,,,,,,2.9,2.3,1.8*3E
$GNGSA,A,3,02,12,25,29,31,,,,,,,,2.9,2.3,1.8*20
$GNGSA,A,3,66,75,76,,,,,,,,,,2.9,2.3,1.8*2C
$QZGSA,A,3,,,,,,,,,,,,,2.9,2.3,1.8*2D
$IMGSA,A,3,,,,,,,,,,,,,2.9,2.3,1.8*22
$BDGSA,A,3,,,,,,,,,,,,,2.9,2.3,1.8*20
$GAGSA,A,3,,,,,,,,,,,,,2.9,2.3,1.8*20
$GPRMC,165225.00,A,4943.231190,N,00536.691750,E,067.8,267.6,140220,,,A*5E
$GPGGA,165226.00,4943.230329,N,00536.663309,E,1,08,2.4,355.6,M,47.6,M,,*6C
$PGLOR,9,STA,165226.00,0.009,0.000,-228,1,24,0,P,F,L,0,C,2,S,00100002,2683,4,R,000833F4,TPeF,17,191564,LC,,,*70
$GPGSV,3,1,10,25,72,078,17,29,71,207,18,31,46,300,19,12,33,090,19*79
$GPGSV,3,2,10,02,31,055,14,14,29,259,08,32,17,233,15,06,08,028,11*71
$GPGSV,3,3,10,24,03,150,,21,03,182,*72
$GLGSV,2,1,07,75,76,340,16,85,65,169,10,76,25,312,25,66,12,298,15*66
$GLGSV,2,2,07,67,12,348,12,86,12,198,21,73,01,125,*51
$BDGSV,2,1,07,230,73,127,,213,37,056,,229,32,207,,227,32,051,*65
$BDGSV,2,2,07,208,23,033,,205,15,119,,214,02,355,*68
$GPGSA,A,3,02,12,25,29,31,32,,,,,,,3.5,2.5,2.5*3A
$GNGSA,A,3,02,12,25,29,31,32,,,,,,,3.5,2.5,2.5*24
$GNGSA,A,3,75,76,,,,,,,,,,,3.5,2.5,2.5*29
$QZGSA,A,3,,,,,,,,,,,,,3.5,2.5,2.5*28
$IMGSA,A,3,,,,,,,,,,,,,3.5,2.5,2.5*27
$BDGSA,A,3,,,,,,,,,,,,,3.5,2.5,2.5*25
$GAGSA,A,3,,,,,,,,,,,,,3.5,2.5,2.5*25
$GPRMC,165226.00,A,4943.230329,N,00536.663309,E,068.6,267.6,140220,,,A*58
$GPGGA,165227.00,4943.229406,N,00536.634191,E,1,09,1.6,355.9,M,47.6,M,,*61
$PGLOR,9,STA,165227.00,0.009,0.000,-229,1,16,0,P,F,L,0,C,2,S,00100002,2718,4,R,000833F4,TPeF,17,192564,LC,,,*71
$GPGSV,3,1,10,25,72,078,17,29,71,207,17,31,46,300,19,12,33,090,19*76
$GPGSV,3,2,10,02,31,055,14,14,29,259,,32,17,233,15,06,08,028,11*79
$GPGSV,3,3,10,24,03,150,,21,03,182,*72
$GLGSV,2,1,07,75,76,340,16,85,65,169,,76,25,312,25,66,12,298,15*67
$GLGSV,2,2,07,67,12,348,12,86,12,198,20,73,01,125,*50
$BDGSV,2,1,07,230,73,127,,213,37,056,,229,32,207,,227,32,051,*65
$BDGSV,2,2,07,208,23,033,,205,15,119,,214,02,355,*68
$GPGSA,A,3,02,12,25,29,31,32,,,,,,,1.9,1.1,1.5*30
$GNGSA,A,3,02,12,25,29,31,32,,,,,,,1.9,1.1,1.5*2E
$GNGSA,A,3,75,76,86,,,,,,,,,,1.9,1.1,1.5*2D
$QZGSA,A,3,,,,,,,,,,,,,1.9,1.1,1.5*22
$IMGSA,A,3,,,,,,,,,,,,,1.9,1.1,1.5*2D
$BDGSA,A,3,,,,,,,,,,,,,1.9,1.1,1.5*2F
$GAGSA,A,3,,,,,,,,,,,,,1.9,1.1,1.5*2F
$GPRMC,165227.00,A,4943.229406,N,00536.634191,E,068.7,269.0,140220,,,A*53
$GPGGA,165228.00,4943.228843,N,00536.604924,E,1,10,1.6,355.9,M,47.6,M,,*6F
$PGLOR,9,STA,165228.00,0.009,0.000,-229,1,16,0,P,F,L,0,C,2,S,00100002,2753,4,R,000833F4,TPeF,17,193564,LC,,,*70
$GPGSV,3,1,10,25,72,078,17,29,71,207,17,31,46,300,19,12,33,090,19*76
$GPGSV,3,2,10,02,31,055,15,14,29,259,08,32,17,233,15,06,08,028,11*70
$GPGSV,3,3,10,24,03,150,,21,03,182,*72
$GLGSV,2,1,07,75,76,340,16,85,65,169,,76,25,312,25,66,12,298,15*67
$GLGSV,2,2,07,67,12,348,12,86,12,198,19,73,01,125,*5A
$BDGSV,2,1,07,230,73,127,,213,37,056,,229,32,207,,227,32,051,*65
$BDGSV,2,2,07,208,23,033,,205,15,119,,214,02,355,*68
$GPGSA,A,3,02,12,25,29,31,32,,,,,,,1.7,1.0,1.3*39
$GNGSA,A,3,02,12,25,29,31,32,,,,,,,1.7,1.0,1.3*27
$GNGSA,A,3,66,75,76,86,,,,,,,,,1.7,1.0,1.3*24
$QZGSA,A,3,,,,,,,,,,,,,1.7,1.0,1.3*2B
$IMGSA,A,3,,,,,,,,,,,,,1.7,1.0,1.3*24
$BDGSA,A,3,,,,,,,,,,,,,1.7,1.0,1.3*26
$GAGSA,A,3,,,,,,,,,,,,,1.7,1.0,1.3*26
$GPRMC,165228.00,A,4943.228843,N,00536.604924,E,068.9,267.9,140220,,,A*5C
$GPGGA,165229.00,4943.227949,N,00536.575578,E,1,09,1.6,355.9,M,47.6,M,,*62
$PGLOR,9,STA,165229.00,0.009,0.000,-230,1,16,0,P,F,L,0,C,2,S,00100002,2788,4,R,000833F4,TPeF,17,194564,LC,,,*78
$GPGSV,3,1,10,25,72,078,16,29,71,207,17,31,46,300,19,12,33,090,19*77
$GPGSV,3,2,10,02,31,055,15,14,29,259,,32,17,233,15,06,08,028,11*78
$GPGSV,3,3,10,24,03,150,,21,03,182,*72
$GLGSV,2,1,07,75,76,340,16,85,65,169,,76,25,312,25,66,12,298,14*66
$GLGSV,2,2,07,67,12,348,12,86,12,198,27,73,01,125,*57
$BDGSV,2,1,07,230,73,127,,213,37,056,,229,32,207,,227,32,051,*65
$BDGSV,2,2,07,208,23,033,,205,15,119,,214,02,355,*68
$GPGSA,A,3,02,12,25,29,31,32,,,,,,,1.7,1.0,1.3*39
$GNGSA,A,3,02,12,25,29,31,32,,,,,,,1.7,1.0,1.3*27
$GNGSA,A,3,75,76,86,,,,,,,,,,1.7,1.0,1.3*24
$QZGSA,A,3,,,,,,,,,,,,,1.7,1.0,1.3*2B
$IMGSA,A,3,,,,,,,,,,,,,1.7,1.0,1.3*24
$BDGSA,A,3,,,,,,,,,,,,,1.7,1.0,1.3*26
$GAGSA,A,3,,,,,,,,,,,,,1.7,1.0,1.3*26
$GPRMC,165229.00,A,4943.227949,N,00536.575578,E,068.7,268.2,140220,,,A*53
$GPGGA,165230.00,4943.227090,N,00536.546112,E,1,09,2.4,356.1,M,47.6,M,,*65
$PGLOR,9,STA,165230.00,0.009,0.000,-230,1,24,0,P,F,L,0,C,2,S,00100002,2823,4,R,000833F4,TPeF,17,195564,LC,,,*7E
$GPGSV,3,1,10,25,72,078,16,29,71,207,16,31,46,300,18,12,33,090,18*76
$GPGSV,3,2,10,02,31,055,15,14,28,259,,32,17,233,14,06,08,028,11*78
$GPGSV,3,3,10,24,03,150,,21,03,182,*72
$GLGSV,2,1,07,75,76,340,16,85,65,169,,76,25,312,24,66,12,298,14*67
$GLGSV,2,2,07,67,12,348,12,86,12,198,27,73,01,125,*57
$BDGSV,2,1,07,230,73,127,,213,37,056,,229,32,207,,227,32,051,*65
$BDGSV,2,2,07,208,23,033,,205,15,119,,214,02,355,*68
$GPGSA,A,3,02,12,25,29,31,32,,,,,,,1.7,1.0,1.3*39
$GNGSA,A,3,02,12,25,29,31,32,,,,,,,1.7,1.0,1.3*27
$GNGSA,A,3,75,76,86,,,,,,,,,,1.7,1.0,1.3*24
$QZGSA,A,3,,,,,,,,,,,,,1.7,1.0,1.3*2B
$IMGSA,A,3,,,,,,,,,,,,,1.7,1.0,1.3*24
$BDGSA,A,3,,,,,,,,,,,,,1.7,1.0,1.3*26
$GAGSA,A,3,,,,,,,,,,,,,1.7,1.0,1.3*26
$GPRMC,165230.00,A,4943.227090,N,00536.546112,E,068.7,267.7,140220,,,A*54
$GPGGA,165231.00,4943.226085,N,00536.517066,E,1,09,2.4,356.3,M,47.6,M,,*65
$PGLOR,9,STA,165231.00,0.009,0.000,-229,1,24,0,P,F,L,0,C,2,S,00100002,2858,4,R,000833F4,TPeF,17,196564,LC,,,*78
$GPGSV,3,1,10,25,72,078,16,29,71,207,16,31,46,300,17,12,33,090,18*79
$GPGSV,3,2,10,02,31,055,15,14,28,259,,32,17,233,19,06,08,028,10*74
$GPGSV,3,3,10,24,03,150,,21,03,182,*72
$GLGSV,2,1,07,75,76,340,16,85,65,169,09,76,25,312,24,66,12,298,14*6E
$GLGSV,2,2,07,67,12,348,12,86,12,198,28,73,01,125,*58
$BDGSV,2,1,07,230,73,127,,213,37,056,,229,32,207,,227,32,051,*65
$BDGSV,2,2,07,208,23,033,,205,15,119,,214,02,355,*68
$GPGSA,A,3,02,12,25,29,31,32,,,,,,,1.7,1.0,1.3*39
$GNGSA,A,3,02,12,25,29,31,32,,,,,,,1.7,1.0,1.3*27
$GNGSA,A,3,75,76,86,,,,,,,,,,1.7,1.0,1.3*24
$QZGSA,A,3,,,,,,,,,,,,,1.7,1.0,1.3*2B
$IMGSA,A,3,,,,,,,,,,,,,1.7,1.0,1.3*24
$BDGSA,A,3,,,,,,,,,,,,,1.7,1.0,1.3*26
$GAGSA,A,3,,,,,,,,,,,,,1.7,1.0,1.3*26
$GPRMC,165231.00,A,4943.226085,N,00536.517066,E,069.1,267.5,140220,,,A*53
$GPGGA,165232.00,4943.224997,N,00536.487683,E,1,09,2.4,356.5,M,47.6,M,,*6D
$PGLOR,9,STA,165232.00,0.009,0.000,-229,1,24,0,P,F,L,0,C,2,S,00100002,2894,4,R,000833F4,TPeF,17,197564,LC,,,*7A
$GPGSV,3,1,10,25,72,078,16,29,71,207,16,31,46,300,17,12,33,090,18*79
$GPGSV,3,2,10,02,31,055,15,14,28,259,,32,17,233,19,06,08,028,*75
$GPGSV,3,3,10,24,03,150,,21,03,182,*72
$GLGSV,2,1,07,75,76,340,16,85,65,169,09,76,25,312,24,66,12,298,13*69
$GLGSV,2,2,07,67,12,348,12,86,12,198,28,73,01,125,*58
$BDGSV,2,1,07,230,73,127,,213,37,056,,229,32,207,,227,32,051,*65
$BDGSV,2,2,07,208,23,033,,205,15,119,,214,02,355,*68
$GPGSA,A,3,02,12,25,29,32,,,,,,,,1.7,1.1,1.3*3A
$GNGSA,A,3,02,12,25,29,32,,,,,,,,1.7,1.1,1.3*24
$GNGSA,A,3,67,75,76,86,,,,,,,,,1.7,1.1,1.3*24
$QZGSA,A,3,,,,,,,,,,,,,1.7,1.1,1.3*2A
$IMGSA,A,3,,,,,,,,,,,,,1.7,1.1,1.3*25
$BDGSA,A,3,,,,,,,,,,,,,1.7,1.1,1.3*27
$GAGSA,A,3,,,,,,,,,,,,,1.7,1.1,1.3*27
$GPRMC,165232.00,A,4943.224997,N,00536.487683,E,069.8,267.6,140220,,,A*57
$GPGGA,165233.00,4943.223920,N,00536.458464,E,1,08,2.4,356.6,M,47.6,M,,*6C
$PGLOR,9,STA,165233.00,0.009,0.000,-229,1,24,0,P,F,L,0,C,2,S,00100002,2929,4,R,000833F4,TPeF,17,198564,LC,,,*73
$GPGSV,3,1,10,25,72,078,15,29,71,207,16,31,46,300,16,12,33,090,18*7B
$GPGSV,3,2,10,02,31,055,15,14,28,259,,32,17,233,19,06,08,028,*75
$GPGSV,3,3,10,24,03,150,,21,03,182,*72
$GLGSV,2,1,07,75,76,340,16,85,65,169,,76,25,312,24,66,12,298,13*60
$GLGSV,2,2,07,67,12,348,12,86,12,198,27,73,01,125,*57
$BDGSV,2,1,07,230,73,127,,213,37,056,,229,32,207,,227,32,051,*65
$BDGSV,2,2,07,208,23,033,,205,15,119,,214,02,355,*68
$GPGSA,A,3,02,12,25,29,32,,,,,,,,1.8,1.1,1.5*33
$GNGSA,A,3,02,12,25,29,32,,,,,,,,1.8,1.1,1.5*2D
$GNGSA,A,3,75,76,86,,,,,,,,,,1.8,1.1,1.5*2C
$QZGSA,A,3,,,,,,,,,,,,,1.8,1.1,1.5*23
$IMGSA,A,3,,,,,,,,,,,,,1.8,1.1,1.5*2C
$BDGSA,A,3,,,,,,,,,,,,,1.8,1.1,1.5*2E
$GAGSA,A,3,,,,,,,,,,,,,1.8,1.1,1.5*2E
$GPRMC,165233.00,A,4943.223920,N,00536.458464,E,069.6,267.5,140220,,,A*59
$GPGGA,165234.00,4943.222760,N,00536.428415,E,1,09,3.2,356.6,M,47.6,M,,*67
$PGLOR,9,STA,165234.00,0.009,0.000,-229,1,32,0,P,F,L,0,C,2,S,00100002,2965,4,R,000833F4,TPeF,17,199564,LC,,,*7A
$GPGSV,3,1,10,25,72,078,15,29,71,207,15,31,46,300,16,12,33,090,17*77
$GPGSV,3,2,10,02,31,055,15,14,28,259,,32,17,233,18,06,08,028,*74
$GPGSV,3,3,10,24,03,150,,21,03,182,*72
$GLGSV,2,1,07,75,76,340,16,85,65,169,,76,25,312,23,66,12,298,13*67
$GLGSV,2,2,07,67,12,348,12,86,12,198,27,73,01,125,*57
$BDGSV,2,1,07,230,73,127,,213,37,056,,229,32,207,,227,32,051,*65
$BDGSV,2,2,07,208,23,033,,205,15,119,,214,02,355,*68
$GPGSA,A,3,02,12,25,29,31,32,,,,,,,1.8,1.1,1.5*31
$GNGSA,A,3,02,12,25,29,31,32,,,,,,,1.8,1.1,1.5*2F
$GNGSA,A,3,75,76,86,,,,,,,,,,1.8,1.1,1.5*2C
$QZGSA,A,3,,,,,,,,,,,,,1.8,1.1,1.5*23
$IMGSA,A,3,,,,,,,,,,,,,1.8,1.1,1.5*2C
$BDGSA,A,3,,,,,,,,,,,,,1.8,1.1,1.5*2E
$GAGSA,A,3,,,,,,,,,,,,,1.8,1.1,1.5*2E
$GPRMC,165234.00,A,4943.222760,N,00536.428415,E,069.6,267.5,140220,,,A*54
$GPGGA,165235.00,4943.221666,N,00536.398463,E,1,08,3.2,356.6,M,47.6,M,,*6E
$PGLOR,9,STA,165235.00,0.009,0.000,-228,1,32,0,P,F,L,0,C,2,S,00100002,3001,4,R,000833F4,TPeF,17,200564,LC,,,*73
$GPGSV,3,1,10,25,72,078,15,29,71,207,15,31,46,300,16,12,33,090,17*77
$GPGSV,3,2,10,02,31,055,15,14,28,259,,32,17,233,18,06,08,028,*74
$GPGSV,3,3,10,24,03,150,,21,03,182,*72
$GLGSV,2,1,07,75,76,340,16,85,65,169,,76,25,312,23,66,12,298,12*66
$GLGSV,2,2,07,67,12,348,12,86,12,198,26,73,01,125,*56
$BDGSV,2,1,07,230,73,127,,213,37,056,,229,32,207,,227,32,051,*65
$BDGSV,2,2,07,208,23,033,,205,15,119,,214,02,355,*68
$GPGSA,A,3,02,12,29,31,32,,,,,,,,2.0,1.2,1.6*3D
$GNGSA,A,3,02,12,29,31,32,,,,,,,,2.0,1.2,1.6*23
$GNGSA,A,3,75,76,86,,,,,,,,,,2.0,1.2,1.6*27
$QZGSA,A,3,,,,,,,,,,,,,2.0,1.2,1.6*28
$IMGSA,A,3,,,,,,,,,,,,,2.0,1.2,1.6*27
$BDGSA,A,3,,,,,,,,,,,,,2.0,1.2,1.6*25
$GAGSA,A,3,,,,,,,,,,,,,2.0,1.2,1.6*25
$GPRMC,165235.00,A,4943.221666,N,00536.398463,E,069.5,267.6,140220,,,A*5C
$GPGGA,165236.00,,,,,0,00,20.0,,M,,M,,*51
$PGLOR,9,STA,165236.00,0.009,0.000,-228,1,200,0,P,F,L,1,C,2,S,00100000,3001,4,R,000833F4,TPeF,17,201564,LC,,,*41
$GPGSV,3,1,10,25,72,078,14,29,71,207,15,31,46,300,15,12,33,090,16*74
$GPGSV,3,2,10,02,31,055,15,14,28,259,,32,17,233,17,06,08,028,09*72
$GPGSV,3,3,10,24,03,150,,21,03,182,*72
$GLGSV,2,1,07,75,76,340,15,85,65,169,,76,25,312,22,66,12,298,12*64
$GLGSV,2,2,07,67,12,348,12,86,12,198,25,73,01,125,*55
$BDGSV,2,1,07,230,73,127,,213,37,056,,229,32,207,,227,32,051,*65
$BDGSV,2,2,07,208,23,033,,205,15,119,,214,02,355,*68
$GPGSA,A,1,,,,,,,,,,,,,140.0,99.0,99.0*35
$GNGSA,A,1,,,,,,,,,,,,,140.0,99.0,99.0*2B
$QZGSA,A,1,,,,,,,,,,,,,140.0,99.0,99.0*29
$IMGSA,A,1,,,,,,,,,,,,,140.0,99.0,99.0*26
$BDGSA,A,1,,,,,,,,,,,,,140.0,99.0,99.0*24
$GAGSA,A,1,,,,,,,,,,,,,140.0,99.0,99.0*24
$GPRMC,165236.00,V,,,,,,,140220,,,N*7D
$GPGGA,165237.00,,,,,0,00,20.0,,M,,M,,*50
$PGLOR,9,STA,165237.00,0.009,0.000,-228,1,200,0,P,F,L,1,C,2,S,00100000,3001,4,R,000833F4,TPeF,17,202564,LC,,,*43
$GPGSV,3,1,10,25,72,078,14,29,71,207,14,31,46,300,15,12,33,090,16*75
$GPGSV,3,2,10,02,31,055,14,14,28,259,,32,17,233,17,06,08,028,*7A
$GPGSV,3,3,10,24,03,150,,21,03,182,*72
$GLGSV,2,1,07,75,76,340,15,85,65,169,,76,25,312,22,66,12,298,11*67
$GLGSV,2,2,07,67,12,348,11,86,12,198,23,73,01,125,*50
$BDGSV,2,1,07,230,73,127,,213,37,056,,229,32,207,,227,32,051,*65
$BDGSV,2,2,07,208,23,033,,205,15,119,,214,02,355,*68
$GPGSA,A,1,,,,,,,,,,,,,140.0,99.0,99.0*35
$GNGSA,A,1,,,,,,,,,,,,,140.0,99.0,99.0*2B
$QZGSA,A,1,,,,,,,,,,,,,140.0,99.0,99.0*29
$IMGSA,A,1,,,,,,,,,,,,,140.0,99.0,99.0*26
$BDGSA,A,1,,,,,,,,,,,,,140.0,99.0,99.0*24
$GAGSA,A,1,,,,,,,,,,,,,140.0,99.0,99.0*24
$GPRMC,165237.00,V,,,,,,,140220,,,N*7C
$GPGGA,165238.00,,,,,0,00,20.0,,M,,M,,*5F
$PGLOR,9,STA,165238.00,0.009,0.000,-228,1,200,0,P,F,L,1,C,2,S,00100000,3001,4,R,000833F4,TPeF,17,203564,LC,,,*4D
$GPGSV,3,1,10,25,72,078,14,29,71,207,14,31,46,300,15,12,33,090,16*75
$GPGSV,3,2,10,02,31,055,14,32,17,233,16,06,08,028,,21,03,182,*71
$GPGSV,3,3,10,14,28,259,,24,03,150,*78
$GLGSV,2,1,07,75,76,340,15,85,65,169,,76,25,312,22,67,12,348,11*6A
$GLGSV,2,2,07,86,12,198,,66,12,298,,73,01,125,*5C
$BDGSV,2,1,07,230,73,127,,213,37,056,,229,32,207,,227,32,051,*65
$BDGSV,2,2,07,208,23,033,,205,15,119,,214,02,355,*68
$GPGSA,A,1,,,,,,,,,,,,,140.0,99.0,99.0*35
$GNGSA,A,1,,,,,,,,,,,,,140.0,99.0,99.0*2B
$QZGSA,A,1,,,,,,,,,,,,,140.0,99.0,99.0*29
$IMGSA,A,1,,,,,,,,,,,,,140.0,99.0,99.0*26
$BDGSA,A,1,,,,,,,,,,,,,140.0,99.0,99.0*24
$GAGSA,A,1,,,,,,,,,,,,,140.0,99.0,99.0*24
$GPRMC,165238.00,V,,,,,,,140220,,,N*73
$GPGGA,165239.00,,,,,0,00,20.0,,M,,M,,*5E
$PGLOR,9,STA,165239.00,0.009,0.000,-228,1,200,0,P,F,L,1,C,2,S,00100000,3001,4,R,000833F4,TPeF,17,204564,LC,,,*4B
$GPGSV,3,1,10,25,72,078,14,29,71,207,14,31,46,300,15,12,33,090,15*76
$GPGSV,3,2,10,02,31,055,14,32,17,233,16,14,28,259,,06,08,028,*7B
$GPGSV,3,3,10,24,03,150,,21,03,182,*72
$GLGSV,2,1,07,75,76,340,14,76,25,312,22,67,12,348,11,86,12,198,*66
$GLGSV,2,2,07,66,12,298,,85,65,169,,73,01,125,*51
$BDGSV,2,1,07,230,73,127,,213,37,056,,229,32,207,,227,32,051,*65
$BDGSV,2,2,07,208,23,033,,205,15,119,,214,02,355,*68
$GPGSA,A,1,,,,,,,,,,,,,140.0,99.0,99.0*35
$GNGSA,A,1,,,,,,,,,,,,,140.0,99.0,99.0*2B
$QZGSA,A,1,,,,,,,,,,,,,140.0,99.0,99.0*29
$IMGSA,A,1,,,,,,,,,,,,,140.0,99.0,99.0*26
$BDGSA,A,1,,,,,,,,,,,,,140.0,99.0,99.0*24
$GAGSA,A,1,,,,,,,,,,,,,140.0,99.0,99.0*24
$GPRMC,165239.00,V,,,,,,,140220,,,N*72
$GPGGA,165240.00,,,,,0,00,20.0,,M,,M,,*50
$PGLOR,9,STA,165240.00,0.009,0.000,-228,1,200,0,P,F,L,1,C,2,S,00100000,3001,4,R,000833F4,TPeF,17,205564,LC,,,*44
$GPGSV,3,1,10,25,72,078,14,29,71,207,13,31,46,300,14,12,33,090,15*70
$GPGSV,3,2,10,02,31,055,14,32,17,233,15,14,28,259,,06,08,028,*78
$GPGSV,3,3,10,24,03,150,,21,03,182,*72
$GLGSV,2,1,07,75,76,340,14,76,25,312,21,67,12,348,11,86,12,198,*65
$GLGSV,2,2,07,66,12,298,,85,65,169,,73,01,125,*51
$BDGSV,2,1,07,230,73,127,,213,37,056,,229,32,207,,227,31,051,*66
$BDGSV,2,2,07,208,23,033,,205,15,119,,214,02,355,*68
$GPGSA,A,1,,,,,,,,,,,,,140.0,99.0,99.0*35
$GNGSA,A,1,,,,,,,,,,,,,140.0,99.0,99.0*2B
$QZGSA,A,1,,,,,,,,,,,,,140.0,99.0,99.0*29
$IMGSA,A,1,,,,,,,,,,,,,140.0,99.0,99.0*26
$BDGSA,A,1,,,,,,,,,,,,,140.0,99.0,99.0*24
$GAGSA,A,1,,,,,,,,,,,,,140.0,99.0,99.0*24
$GPRMC,165240.00,V,,,,,,,140220,,,N*7C
$GPGGA,165241.00,,,,,0,00,300.0,,M,,M,,*60
$PGLOR,9,STA,165241.00,0.009,0.000,-228,1,3000,0,P,F,L,1,C,2,S,00100000,3001,4,R,000833F4,TPeF,17,206564,LC,,,*77
$GPGSV,3,1,10,25,72,078,14,29,71,207,13,31,46,300,14,12,33,090,15*70
$GPGSV,3,2,10,02,31,055,14,32,17,233,15,14,28,259,,06,08,028,*78
